{
  "version": 0.6,
  "generator": "Overpass API 0.7.62.1 084b4234",
  "osm3s": {
    "timestamp_osm_base": "2024-07-02T05:38:25Z",
    "timestamp_areas_base": "2024-07-02T04:14:24Z",
    "copyright": "The data included in this document is from www.openstreetmap.org. The data is made available under ODbL."
  },
  "elements": [
    {
      "type": "node",
      "id": 274052206,
      "lat": 47.2188897,
      "lon": 39.7141253,
      "tags": {
        "name": "Люкс",
        "shop": "fabric"
      }
    },
    {
      "type": "node",
      "id": 274052705,
      "lat": 47.2189341,
      "lon": 39.7144129,
      "tags": {
        "brand": "Магнит",
        "brand:wikidata": "Q940518",
        "brand:wikipedia": "ru:Магнит (сеть магазинов)",
        "contact:email": "info@magnit.ru",
        "contact:phone": "+7 800 2009002",
        "contact:twitter": "https://twitter.com/magnit_info",
        "contact:website": "https://magnit-info.ru",
        "name": "Магнит",
        "name:en": "Magnit",
        "name:ru": "Магнит",
        "operator": "АО \"Тандер\"",
        "shop": "supermarket"
      }
    },
    {
      "type": "node",
      "id": 274257755,
      "lat": 47.2206134,
      "lon": 39.7137112,
      "tags": {
        "name": "Эрна",
        "phone": "+7 863 2999294",
        "shop": "fabric",
        "website": "https://erna-tkani.ru/"
      }
    },
    {
      "type": "node",
      "id": 283073613,
      "lat": 47.2166416,
      "lon": 39.7008785,
      "tags": {
        "name": "Магнит",
        "shop": "supermarket"
      }
    },
    {
      "type": "node",
      "id": 283073649,
      "lat": 47.2168127,
      "lon": 39.7010441,
      "tags": {
        "name": "Корзинка",
        "shop": "convenience"
      }
    },
    {
      "type": "node",
      "id": 283164007,
      "lat": 47.2165517,
      "lon": 39.7075712,
      "tags": {
        "addr:city": "Ростов-на-Дону",
        "addr:housenumber": "52",
        "addr:postcode": "344002",
        "addr:street": "улица Станиславского",
        "brand": "Магнит",
        "brand:wikidata": "Q940518",
        "brand:wikipedia": "ru:Магнит (сеть магазинов)",
        "contact:email": "info@magnit.ru",
        "contact:phone": "+7 800 200-90-02",
        "contact:twitter": "https://twitter.com/magnit_info",
        "contact:website": "http://magnit-info.ru",
        "name": "Магнит",
        "name:de": "Magnit",
        "name:en": "Magnit",
        "name:ru": "Магнит",
        "opening_hours": "09:30-21:30",
        "operator": "АО \"Тандер\"",
        "shop": "supermarket",
        "website": "http://www.magnit-info.ru"
      }
    },
    {
      "type": "node",
      "id": 290141671,
      "lat": 47.2132167,
      "lon": 39.7105294,
      "tags": {
        "name": "Тихий Дон",
        "opening_hours": "Mo-Su 08:00-23:59",
        "shop": "supermarket"
      }
    },
    {
      "type": "node",
      "id": 583954967,
      "lat": 47.2808551,
      "lon": 39.7175094,
      "tags": {
        "addr:country": "RU",
        "alt_name": "Перекресток",
        "brand": "Перекресток",
        "brand:en": "Perekrestok",
        "brand:wikidata": "Q1684639",
        "brand:wikipedia": "en:Perekrestok (supermarket chain)",
        "contact:phone": "+7 495 220-60-36",
        "name": "Перекрёсток",
        "opening_hours": "Mo-Su 09:00-23:00",
        "operator": "Торговый дом \"ПЕРЕКРЕСТОК\"",
        "shop": "supermarket",
        "website": "https://www.perekrestok.ru/"
      }
    },
    {
      "type": "node",
      "id": 599170824,
      "lat": 47.2093097,
      "lon": 39.6355063,
      "tags": {
        "name": "Ассорти",
        "name:ru": "Ассорти",
        "shop": "convenience"
      }
    },
    {
      "type": "node",
      "id": 599206147,
      "lat": 47.2096446,
      "lon": 39.6456535,
      "tags": {
        "name": "Владос",
        "shop": "computer"
      }
    },
    {
      "type": "node",
      "id": 599240425,
      "lat": 47.207605,
      "lon": 39.634306,
      "tags": {
        "name": "Шипка",
        "shop": "furniture"
      }
    },
    {
      "type": "node",
      "id": 599240427,
      "lat": 47.20841,
      "lon": 39.63581,
      "tags": {
        "addr:housenumber": "20",
        "addr:street": "Коммунистический проспект",
        "name": "Офис класс",
        "opening_hours": "Mo-Fr 09:00-14:00,15:00-20:00; Sa-Su 10:00-19:00",
        "shop": "stationery",
        "wheelchair": "no"
      }
    },
    {
      "type": "node",
      "id": 599240428,
      "lat": 47.2084176,
      "lon": 39.6361458,
      "tags": {
        "shop": "hairdresser"
      }
    },
    {
      "type": "node",
      "id": 599240429,
      "lat": 47.2083903,
      "lon": 39.6382652,
      "tags": {
        "shop": "hairdresser"
      }
    },
    {
      "type": "node",
      "id": 599240430,
      "lat": 47.208425,
      "lon": 39.6400178,
      "tags": {
        "shop": "clothes"
      }
    },
    {
      "type": "node",
      "id": 602042146,
      "lat": 47.2115473,
      "lon": 39.614221,
      "tags": {
        "addr:housenumber": "32",
        "addr:street": "улица Малиновского",
        "amenity": "fuel",
        "brand": "Роснефть",
        "name": "Роснефть",
        "opening_hours": "24/7",
        "operator": "ЗАО РН-Ростовнефтепродукт",
        "ref": "20",
        "shop": "yes",
        "website": "https://www.rosneft.ru/"
      }
    },
    {
      "type": "node",
      "id": 603753298,
      "lat": 47.2060536,
      "lon": 39.6376864,
      "tags": {
        "brand": "Магнит",
        "brand:en": "Magnit",
        "brand:wikidata": "Q940518",
        "brand:wikipedia": "ru:Магнит (сеть магазинов)",
        "contact:email": "info@magnit.ru",
        "contact:phone": "+7 800 200-90-02",
        "contact:twitter": "https://twitter.com/magnit_info",
        "contact:website": "http://magnit-info.ru",
        "name": "Магнит",
        "name:en": "Magnit",
        "name:ru": "Магнит",
        "opening_hours": "Mo-Su 09:30-21:00",
        "operator": "АО \"Тандер\"",
        "shop": "supermarket",
        "website": "http://www.magnit-info.ru"
      }
    },
    {
      "type": "node",
      "id": 604591583,
      "lat": 47.2079484,
      "lon": 39.6193397,
      "tags": {
        "shop": "optician"
      }
    },
    {
      "type": "node",
      "id": 604591614,
      "lat": 47.2079836,
      "lon": 39.6207435,
      "tags": {
        "shop": "optician"
      }
    },
    {
      "type": "node",
      "id": 614550462,
      "lat": 47.2127223,
      "lon": 39.6400002,
      "tags": {
        "name": "Империя продуктов",
        "shop": "convenience"
      }
    },
    {
      "type": "node",
      "id": 614550470,
      "lat": 47.2127902,
      "lon": 39.6400502,
      "tags": {
        "name": "Дядьково",
        "shop": "furniture"
      }
    },
    {
      "type": "node",
      "id": 616382608,
      "lat": 47.232297,
      "lon": 39.7108901,
      "tags": {
        "contact:email": "info@agrokomplex.ru",
        "contact:phone": "+7 800 2500690",
        "contact:website": "https://www.agrokomplex.ru/",
        "name": "Агрокомплекс Выселковский",
        "name:ru": "Агрокомплекс Выселковский",
        "note": "Недорогие и качественные продукты",
        "opening_hours": "Mo-Su 08:00-20:30",
        "shop": "convenience"
      }
    },
    {
      "type": "node",
      "id": 616382609,
      "lat": 47.2316715,
      "lon": 39.7143503,
      "tags": {
        "name": "Кооператор Дона",
        "shop": "supermarket"
      }
    },
    {
      "type": "node",
      "id": 616787676,
      "lat": 47.2349514,
      "lon": 39.705228,
      "tags": {
        "name": "Вавилон",
        "name:ru": "Вавилон",
        "shop": "supermarket"
      }
    },
    {
      "type": "node",
      "id": 618566140,
      "lat": 47.2100061,
      "lon": 39.6454749,
      "tags": {
        "brand": "Магнит",
        "brand:wikidata": "Q940518",
        "brand:wikipedia": "ru:Магнит (сеть магазинов)",
        "contact:email": "info@magnit.ru",
        "contact:phone": "+7 800 200-90-02",
        "contact:twitter": "https://twitter.com/magnit_info",
        "contact:website": "http://magnit-info.ru",
        "name": "Магнит",
        "name:de": "Magnit",
        "name:en": "Magnit",
        "name:ru": "Магнит",
        "operator": "АО \"Тандер\"",
        "shop": "supermarket",
        "website": "http://www.magnit-info.ru"
      }
    },
    {
      "type": "node",
      "id": 618566141,
      "lat": 47.210947,
      "lon": 39.6450462,
      "tags": {
        "name": "Империя продуктов",
        "shop": "convenience"
      }
    },
    {
      "type": "node",
      "id": 618572040,
      "lat": 47.2098351,
      "lon": 39.6455624,
      "tags": {
        "name": "Великолукский мясокомбинат",
        "shop": "butcher"
      }
    },
    {
      "type": "node",
      "id": 618674437,
      "lat": 47.2072803,
      "lon": 39.6173291,
      "tags": {
        "name": "Тройка",
        "shop": "convenience"
      }
    },
    {
      "type": "node",
      "id": 638950959,
      "lat": 47.2670174,
      "lon": 39.7891732,
      "tags": {
        "shop": "convenience"
      }
    },
    {
      "type": "node",
      "id": 638950986,
      "lat": 47.2676696,
      "lon": 39.7877394,
      "tags": {
        "brand": "Магнит",
        "brand:wikidata": "Q940518",
        "brand:wikipedia": "ru:Магнит (сеть магазинов)",
        "contact:email": "info@magnit.ru",
        "contact:phone": "+7 800 200-90-02",
        "contact:twitter": "https://twitter.com/magnit_info",
        "contact:website": "http://magnit-info.ru",
        "name": "Магнит",
        "name:en": "Magnit",
        "name:ru": "Магнит",
        "operator": "АО \"Тандер\"",
        "shop": "supermarket",
        "website": "http://www.magnit-info.ru"
      }
    },
    {
      "type": "node",
      "id": 651970628,
      "lat": 47.2278705,
      "lon": 39.7133328,
      "tags": {
        "name": "Империя продуктов",
        "shop": "convenience"
      }
    },
    {
      "type": "node",
      "id": 667785120,
      "lat": 47.2427025,
      "lon": 39.7127295,
      "tags": {
        "name": "Покрышкино",
        "service": "tyres",
        "shop": "tyres"
      }
    },
    {
      "type": "node",
      "id": 691600075,
      "lat": 47.277935,
      "lon": 39.8006928,
      "tags": {
        "addr:housenumber": "54",
        "addr:street": "Черешневая улица",
        "email": "2916917@mail.ru",
        "name": "Самокат",
        "opening_hours": "Tu-Su 09:30-20:00",
        "operator": "Самокат",
        "phone": "2916917",
        "shop": "bicycle",
        "website": "http://www.samokat.pro"
      }
    },
    {
      "type": "node",
      "id": 700204967,
      "lat": 47.2312121,
      "lon": 39.726161,
      "tags": {
        "brand": "Перекресток",
        "brand:en": "Perekrestok",
        "brand:wikidata": "Q1684639",
        "brand:wikipedia": "en:Perekrestok (supermarket chain)",
        "contact:phone": "+7 495 662-88-88",
        "contact:website": "https://www.perekrestok.ru/",
        "name": "Перекрёсток",
        "opening_hours": "24/7",
        "operator": "Торговый дом \"ПЕРЕКРЕСТОК\"",
        "shop": "supermarket"
      }
    },
    {
      "type": "node",
      "id": 736497383,
      "lat": 47.203997,
      "lon": 39.723735,
      "tags": {
        "addr:city": "Ростов-на-Дону",
        "addr:country": "RU",
        "addr:housenumber": "1",
        "addr:street": "Пойменная улица",
        "brand:wikidata": "Q509349",
        "contact:email": "customer.support@decathlon.com",
        "contact:facebook": "https://www.facebook.com/decathlonrussia/",
        "contact:ok": "https://ok.ru/group/52069019484331",
        "contact:phone": "+7 800 7000066",
        "contact:vk": "https://vk.com/decathlon",
        "contact:website": "https://desport.ru",
        "level": "2",
        "name": "Desport",
        "opening_hours": "Mo-Su 10:00-22:00",
        "operator": "ООО \"ОКТОБЛУ\"",
        "shop": "sports"
      }
    },
    {
      "type": "node",
      "id": 736512801,
      "lat": 47.2105435,
      "lon": 39.6722792,
      "tags": {
        "addr:country": "RU",
        "alt_name": "Перекресток",
        "brand": "Перекресток",
        "brand:en": "Perekrestok",
        "brand:wikidata": "Q1684639",
        "brand:wikipedia": "en:Perekrestok (supermarket chain)",
        "contact:phone": "+7 863 303-15-15",
        "name": "Перекрёсток",
        "opening_hours": "Mo-Su 08:00-24:00",
        "operator": "Торговый дом \"ПЕРЕКРЕСТОК\"",
        "shop": "supermarket",
        "website": "https://www.perekrestok.ru/"
      }
    },
    {
      "type": "node",
      "id": 736512805,
      "lat": 47.2105362,
      "lon": 39.6727258,
      "tags": {
        "name": "POLARIS",
        "shop": "computer"
      }
    },
    {
      "type": "node",
      "id": 795956643,
      "lat": 47.2586511,
      "lon": 39.6510824,
      "tags": {
        "alt_name": "Пятерочка",
        "brand": "Пятёрочка",
        "brand:wikidata": "Q1768969",
        "brand:wikipedia": "ru:Пятёрочка",
        "contact:email": "vopros@5ka.ru",
        "contact:facebook": "https://www.facebook.com/pyaterochka",
        "contact:instagram": "https://www.instagram.com/pyaterochka_official",
        "contact:ok": "https://ok.ru/pyaterochka",
        "contact:phone": "+7 800 5555505",
        "contact:vk": "https://vk.com/club19098821",
        "contact:website": "https://5ka.ru",
        "name": "Пятёрочка",
        "name:ru": "Пятёрочка",
        "shop": "supermarket"
      }
    },
    {
      "type": "node",
      "id": 795956871,
      "lat": 47.2593507,
      "lon": 39.6506005,
      "tags": {
        "name": "Солнечный круг",
        "payment:mastercard": "yes",
        "payment:visa": "yes",
        "shop": "supermarket"
      }
    },
    {
      "type": "node",
      "id": 795970464,
      "lat": 47.2574996,
      "lon": 39.6460527,
      "tags": {
        "brand": "Магнит",
        "brand:wikidata": "Q940518",
        "brand:wikipedia": "ru:Магнит (сеть магазинов)",
        "contact:email": "info@magnit.ru",
        "contact:phone": "+7 800 200-90-02",
        "contact:twitter": "https://twitter.com/magnit_info",
        "contact:website": "http://magnit-info.ru",
        "inn": "2310031475",
        "name": "Магнит",
        "name:en": "Magnit",
        "name:ru": "Магнит",
        "opening_hours": "Mo-Su 09:00-21:00",
        "operator": "АО \"Тандер\"",
        "shop": "supermarket",
        "website": "http://www.magnit-info.ru"
      }
    },
    {
      "type": "node",
      "id": 795970465,
      "lat": 47.2580694,
      "lon": 39.6471376,
      "tags": {
        "alt_name": "Пятерочка",
        "brand": "Пятёрочка",
        "brand:wikidata": "Q1768969",
        "brand:wikipedia": "ru:Пятёрочка",
        "contact:email": "vopros@5ka.ru",
        "contact:facebook": "https://www.facebook.com/pyaterochka",
        "contact:instagram": "https://www.instagram.com/pyaterochka_official",
        "contact:ok": "https://ok.ru/pyaterochka",
        "contact:phone": "+7 800 5555505",
        "contact:vk": "https://vk.com/pyaterochka_shop",
        "contact:website": "https://5ka.ru",
        "name": "Пятёрочка",
        "name:ru": "Пятёрочка",
        "opening_hours": "Mo-Su 08:00-22:00",
        "shop": "convenience"
      }
    },
    {
      "type": "node",
      "id": 795974540,
      "lat": 47.2606379,
      "lon": 39.6510523,
      "tags": {
        "amenity": "cafe",
        "name": "Магнит",
        "opening_hours": "Mo-Su 09:00-22:00",
        "shop": "supermarket"
      }
    },
    {
      "type": "node",
      "id": 795977409,
      "lat": 47.2582496,
      "lon": 39.6448939,
      "tags": {
        "shop": "convenience"
      }
    },
    {
      "type": "node",
      "id": 795978777,
      "lat": 47.2616934,
      "lon": 39.6529575,
      "tags": {
        "brand": "Магнит",
        "brand:wikidata": "Q940518",
        "brand:wikipedia": "ru:Магнит (сеть магазинов)",
        "contact:email": "info@magnit.ru",
        "contact:phone": "+7 800 200-90-02",
        "contact:twitter": "https://twitter.com/magnit_info",
        "contact:website": "http://magnit-info.ru",
        "name": "Магнит",
        "name:en": "Magnit",
        "name:ru": "Магнит",
        "operator": "АО \"Тандер\"",
        "shop": "supermarket",
        "website": "http://www.magnit-info.ru"
      }
    },
    {
      "type": "node",
      "id": 798191027,
      "lat": 47.2315522,
      "lon": 39.6128873,
      "tags": {
        "contact:email": "24@mvideo.ru",
        "contact:facebook": "https://www.facebook.com/mvideo.ru",
        "contact:instagram": "https://www.instagram.com/mvideo_ru/",
        "contact:ok": "https://ok.ru/mvideo",
        "contact:phone": "+7 800 6007775",
        "contact:twitter": "https://twitter.com/mvideo",
        "contact:vk": "https://vk.com/mvideo",
        "contact:website": "https://mvideo.ru/",
        "description": "«М.Видео» — одна из крупнейших европейских компаний в сегменте бытовой техники и электроники. Более 20 тысяч наименований товаров, техники, надежный сервис и самые выгодные предложения на рынке.",
        "name": "М.видео",
        "opening_hours": "Mo-Su 10:00-22:00",
        "operator": "МВМ",
        "operator:wikidata": "Q6558800",
        "operator:wikipedia": "ru:М.Видео",
        "shop": "electronics"
      }
    },
    {
      "type": "node",
      "id": 798191030,
      "lat": 47.2314107,
      "lon": 39.6128713,
      "tags": {
        "alt_name": "ДНС",
        "brand": "DNS",
        "brand:en": "DNS",
        "brand:ru": "ДНС",
        "brand:wikidata": "Q4036922",
        "brand:wikipedia": "DNS (сеть магазинов)",
        "contact:email": "Gluschenko.e@dns-shop.ru",
        "contact:facebook": "https://www.facebook.com/dnsshop",
        "contact:phone": "+7 800 7707999",
        "contact:twitter": "https://twitter.com/dnsshop",
        "contact:vk": "https://vk.com/dnsstore",
        "contact:website": "https://www.dns-shop.ru/",
        "contact:youtube": "https://www.youtube.com/c/DNSSHOPvideo",
        "name": "DNS",
        "name:en": "DNS",
        "name:ru": "ДНС",
        "opening_hours": "Mo-Su 10:00-22:00",
        "operator": "ДНС Ритейл",
        "shop": "electronics"
      }
    },
    {
      "type": "node",
      "id": 811527541,
      "lat": 47.1874961,
      "lon": 39.6365068,
      "tags": {
        "addr:housenumber": "166",
        "addr:street": "Всесоюзная улица",
        "amenity": "fuel",
        "brand": "Роснефть",
        "name": "Роснефть",
        "opening_hours": "24/7",
        "operator": "ЗАО РН-Ростовнефтепродукт",
        "ref": "6",
        "shop": "no",
        "website": "https://www.rosneft.ru/"
      }
    },
    {
      "type": "node",
      "id": 815452083,
      "lat": 47.2922296,
      "lon": 39.6608875,
      "tags": {
        "shop": "convenience"
      }
    },
    {
      "type": "node",
      "id": 815595838,
      "lat": 47.2036935,
      "lon": 39.6156636,
      "tags": {
        "name": "Апекс",
        "opening_hours": "24/7",
        "shop": "convenience"
      }
    },
    {
      "type": "node",
      "id": 815595839,
      "lat": 47.2038415,
      "lon": 39.6162325,
      "tags": {
        "shop": "convenience"
      }
    },
    {
      "type": "node",
      "id": 815823043,
      "lat": 47.2881887,
      "lon": 39.717818,
      "tags": {
        "name": "21 Век",
        "shop": "convenience"
      }
    },
    {
      "type": "node",
      "id": 815826585,
      "lat": 47.288116,
      "lon": 39.7160334,
      "tags": {
        "name": "Империя продуктов",
        "shop": "convenience"
      }
    },
    {
      "type": "node",
      "id": 815827587,
      "lat": 47.2880301,
      "lon": 39.7153372,
      "tags": {
        "shop": "convenience"
      }
    },
    {
      "type": "node",
      "id": 818593623,
      "lat": 47.2896202,
      "lon": 39.7122383,
      "tags": {
        "service": "parts",
        "shop": "car"
      }
    },
    {
      "type": "node",
      "id": 818609440,
      "lat": 47.2875158,
      "lon": 39.7087579,
      "tags": {
        "brand": "Магнит",
        "brand:wikidata": "Q940518",
        "brand:wikipedia": "ru:Магнит (сеть магазинов)",
        "contact:email": "info@magnit.ru",
        "contact:phone": "+7 800 200-90-02",
        "contact:twitter": "https://twitter.com/magnit_info",
        "contact:website": "http://magnit-info.ru",
        "int_name": "Magnit",
        "name": "Магнит",
        "name:en": "Magnit",
        "name:ru": "Магнит",
        "operator": "АО \"Тандер\"",
        "shop": "supermarket",
        "website": "http://www.magnit-info.ru"
      }
    },
    {
      "type": "node",
      "id": 829084191,
      "lat": 47.220706,
      "lon": 39.7133075,
      "tags": {
        "name": "Руна",
        "shop": "fabric"
      }
    },
    {
      "type": "node",
      "id": 836473361,
      "lat": 47.2171793,
      "lon": 39.6141,
      "tags": {
        "addr:city": "Ростов-на-Дону",
        "addr:country": "RU",
        "addr:housenumber": "48 кА",
        "addr:street": "улица Малиновского",
        "name": "Ваш Дом",
        "opening_hours": "Mo-Su 07:00-21:00",
        "phone": "+7 863 2375500",
        "shop": "doityourself",
        "website": "http://www.stroymag61.ru/"
      }
    },
    {
      "type": "node",
      "id": 838516010,
      "lat": 47.3006579,
      "lon": 39.723575,
      "tags": {
        "name": "Солнечный Круг",
        "shop": "supermarket"
      }
    },
    {
      "type": "node",
      "id": 903972888,
      "lat": 47.2582821,
      "lon": 39.8024419,
      "tags": {
        "addr:housenumber": "191Б",
        "addr:street": "проспект Шолохова",
        "amenity": "fuel",
        "brand": "Роснефть",
        "fuel:diesel": "yes",
        "fuel:octane_92": "yes",
        "fuel:octane_95": "yes",
        "name": "Роснефть",
        "opening_hours": "24/7",
        "operator": "ЗАО РН-Ростовнефтепродукт",
        "ref": "23",
        "shop": "yes",
        "website": "https://www.rosneft.ru/"
      }
    },
    {
      "type": "node",
      "id": 908387340,
      "lat": 47.2349121,
      "lon": 39.7160915,
      "tags": {
        "addr:street": "проспект Соколова",
        "brand": "Магнит",
        "brand:wikidata": "Q940518",
        "brand:wikipedia": "ru:Магнит (сеть магазинов)",
        "contact:email": "info@magnit.ru",
        "contact:phone": "+7 800 200-90-02",
        "contact:twitter": "https://twitter.com/magnit_info",
        "contact:website": "http://magnit-info.ru",
        "int_name": "Magnit",
        "name": "Магнит",
        "name:en": "Magnit",
        "name:ru": "Магнит",
        "operator": "АО \"Тандер\"",
        "shop": "supermarket",
        "website": "http://www.magnit-info.ru"
      }
    },
    {
      "type": "node",
      "id": 928104191,
      "lat": 47.2894784,
      "lon": 39.70543,
      "tags": {
        "name": "Адамас",
        "shop": "jewelry"
      }
    },
    {
      "type": "node",
      "id": 942477664,
      "lat": 47.2228596,
      "lon": 39.6332693,
      "tags": {
        "name": "Светлый",
        "shop": "convenience"
      }
    },
    {
      "type": "node",
      "id": 942477669,
      "lat": 47.2220432,
      "lon": 39.6337578,
      "tags": {
        "name": "Калина",
        "shop": "convenience"
      }
    },
    {
      "type": "node",
      "id": 945182004,
      "lat": 47.2894837,
      "lon": 39.7058959,
      "tags": {
        "name": "Пивная",
        "shop": "kiosk"
      }
    },
    {
      "type": "node",
      "id": 956396635,
      "lat": 47.2598044,
      "lon": 39.717332,
      "tags": {
        "name": "Ассорти",
        "opening_hours": "Mo-Su 07:00-23:00",
        "payment:mastercard": "yes",
        "payment:visa": "yes",
        "shop": "supermarket"
      }
    },
    {
      "type": "node",
      "id": 965550351,
      "lat": 47.2610555,
      "lon": 39.6875605,
      "tags": {
        "name": "Марафет",
        "shop": "hairdresser"
      }
    },
    {
      "type": "node",
      "id": 979746553,
      "lat": 47.2559189,
      "lon": 39.6434189,
      "tags": {
        "shop": "convenience"
      }
    },
    {
      "type": "node",
      "id": 979746561,
      "lat": 47.2587133,
      "lon": 39.6488798,
      "tags": {
        "shop": "supermarket"
      }
    },
    {
      "type": "node",
      "id": 1001443313,
      "lat": 47.2010902,
      "lon": 39.6666624,
      "tags": {
        "shop": "convenience"
      }
    },
    {
      "type": "node",
      "id": 1034685569,
      "lat": 47.2573976,
      "lon": 39.7792014,
      "tags": {
        "alt_name": "Пятерочка",
        "brand": "Пятёрочка",
        "brand:wikidata": "Q1768969",
        "brand:wikipedia": "ru:Пятёрочка",
        "contact:email": "vopros@5ka.ru",
        "contact:facebook": "https://www.facebook.com/pyaterochka",
        "contact:instagram": "https://www.instagram.com/pyaterochka_official",
        "contact:ok": "https://ok.ru/pyaterochka",
        "contact:phone": "+7 800 5555505",
        "contact:vk": "https://vk.com/club19098821",
        "contact:website": "https://5ka.ru",
        "name": "Пятёрочка",
        "name:ru": "Пятёрочка",
        "shop": "supermarket",
        "website": "http://e5.ru/"
      }
    },
    {
      "type": "node",
      "id": 1034768888,
      "lat": 47.2233689,
      "lon": 39.7185884,
      "tags": {
        "name": "Солнечный круг",
        "note": "работает до 0",
        "opening_hours": "Mo-Su 07:30-23:30",
        "payment:mastercard": "yes",
        "payment:visa": "yes",
        "shop": "supermarket"
      }
    },
    {
      "type": "node",
      "id": 1036933385,
      "lat": 47.2057305,
      "lon": 39.6342685,
      "tags": {
        "addr:city": "Ростов-на-Дону",
        "addr:country": "RU",
        "addr:housenumber": "78 к3",
        "addr:street": "2-я Краснодарская улица",
        "alt_name": "Пятерочка",
        "brand": "Пятёрочка",
        "brand:wikidata": "Q1768969",
        "brand:wikipedia": "ru:Пятёрочка",
        "contact:email": "vopros@5ka.ru",
        "contact:facebook": "https://www.facebook.com/pyaterochka",
        "contact:instagram": "https://www.instagram.com/pyaterochka_official",
        "contact:ok": "https://ok.ru/pyaterochka",
        "contact:phone": "+7 800 5555505",
        "contact:vk": "https://vk.com/club19098821",
        "contact:website": "https://5ka.ru",
        "name": "Пятёрочка",
        "name:ru": "Пятёрочка",
        "shop": "supermarket",
        "website": "http://e5.ru/"
      }
    },
    {
      "type": "node",
      "id": 1038338352,
      "lat": 47.2320669,
      "lon": 39.7611573,
      "tags": {
        "addr:housenumber": "28/2",
        "addr:street": "площадь Карла Маркса",
        "amenity": "cafe",
        "description": "банкетный зал",
        "name": "Золотой Колос",
        "shop": "confectionery",
        "website": "https://www.zolotoykolos.ru/"
      }
    },
    {
      "type": "node",
      "id": 1039413910,
      "lat": 47.2078883,
      "lon": 39.6164648,
      "tags": {
        "alt_name": "Пятерочка",
        "brand": "Пятёрочка",
        "brand:wikidata": "Q1768969",
        "brand:wikipedia": "ru:Пятёрочка",
        "contact:email": "vopros@5ka.ru",
        "contact:facebook": "https://www.facebook.com/pyaterochka",
        "contact:instagram": "https://www.instagram.com/pyaterochka_official",
        "contact:ok": "https://ok.ru/pyaterochka",
        "contact:phone": "+7 800 5555505",
        "contact:vk": "https://vk.com/club19098821",
        "contact:website": "https://5ka.ru",
        "name": "Пятёрочка",
        "name:ru": "Пятёрочка",
        "opening_hours": "09:00-23:00",
        "operator": "ЗАО \"Торговый дом \"Перекресток\"",
        "shop": "supermarket",
        "website": "http://e5.ru/"
      }
    },
    {
      "type": "node",
      "id": 1056337345,
      "lat": 47.2261474,
      "lon": 39.7579098,
      "tags": {
        "brand": "Пятёрочка",
        "brand:en": "Pyaterochka",
        "brand:wikidata": "Q1768969",
        "name": "Пятёрочка",
        "name:en": "Pyaterochka",
        "name:ru": "Пятёрочка",
        "payment:mastercard": "yes",
        "payment:visa": "yes",
        "shop": "supermarket"
      }
    },
    {
      "type": "node",
      "id": 1058697527,
      "lat": 47.2210018,
      "lon": 39.715614,
      "tags": {
        "shop": "vacant"
      }
    },
    {
      "type": "node",
      "id": 1065414606,
      "lat": 47.2413392,
      "lon": 39.7072131,
      "tags": {
        "brand": "Магнит",
        "brand:wikidata": "Q940518",
        "brand:wikipedia": "ru:Магнит (сеть магазинов)",
        "contact:email": "info@magnit.ru",
        "contact:phone": "+7 800 200-90-02",
        "contact:twitter": "https://twitter.com/magnit_info",
        "contact:website": "http://magnit-info.ru",
        "name": "Магнит",
        "name:en": "Magnit",
        "name:ru": "Магнит",
        "operator": "АО \"Тандер\"",
        "shop": "supermarket",
        "website": "http://www.magnit-info.ru"
      }
    },
    {
      "type": "node",
      "id": 1065415875,
      "lat": 47.2368618,
      "lon": 39.7103119,
      "tags": {
        "shop": "convenience"
      }
    },
    {
      "type": "node",
      "id": 1078653991,
      "lat": 47.2223715,
      "lon": 39.7174196,
      "tags": {
        "name": "Магистр",
        "shop": "books",
        "wheelchair": "no"
      }
    },
    {
      "type": "node",
      "id": 1078653994,
      "lat": 47.2268369,
      "lon": 39.7439799,
      "tags": {
        "name": "Гастроном Театральный",
        "opening_hours": "PH,Mo-Su 08:00-02:00",
        "shop": "convenience"
      }
    },
    {
      "type": "node",
      "id": 1078654004,
      "lat": 47.2280788,
      "lon": 39.7538014,
      "tags": {
        "name": "Яблочко",
        "shop": "convenience"
      }
    },
    {
      "type": "node",
      "id": 1078654006,
      "lat": 47.2297368,
      "lon": 39.7183163,
      "tags": {
        "name": "1000 и 1 бутылка",
        "shop": "alcohol"
      }
    },
    {
      "type": "node",
      "id": 1078654008,
      "lat": 47.2283639,
      "lon": 39.7527771,
      "tags": {
        "shop": "hairdresser"
      }
    },
    {
      "type": "node",
      "id": 1078654009,
      "lat": 47.2304514,
      "lon": 39.7609766,
      "tags": {
        "name": "Факел",
        "shop": "books"
      }
    },
    {
      "type": "node",
      "id": 1078654012,
      "lat": 47.2286617,
      "lon": 39.7517125,
      "tags": {
        "name": "Восход",
        "shop": "convenience"
      }
    },
    {
      "type": "node",
      "id": 1103603412,
      "lat": 47.2673451,
      "lon": 39.7884731,
      "tags": {
        "name": "Солнечный круг",
        "payment:mastercard": "yes",
        "payment:visa": "yes",
        "shop": "supermarket"
      }
    },
    {
      "type": "node",
      "id": 1103603415,
      "lat": 47.2670941,
      "lon": 39.7880469,
      "tags": {
        "name": "Мир дверей",
        "shop": "convenience"
      }
    },
    {
      "type": "node",
      "id": 1103688168,
      "lat": 47.2682525,
      "lon": 39.7883211,
      "tags": {
        "name": "SecondHand",
        "shop": "convenience"
      }
    },
    {
      "type": "node",
      "id": 1103688172,
      "lat": 47.2614777,
      "lon": 39.7874444,
      "tags": {
        "shop": "convenience"
      }
    },
    {
      "type": "node",
      "id": 1103688175,
      "lat": 47.2696794,
      "lon": 39.7895827,
      "tags": {
        "shop": "convenience"
      }
    },
    {
      "type": "node",
      "id": 1103688200,
      "lat": 47.2683568,
      "lon": 39.7884189,
      "tags": {
        "name": "Книги",
        "shop": "convenience"
      }
    },
    {
      "type": "node",
      "id": 1104960667,
      "lat": 47.2329797,
      "lon": 39.7661649,
      "tags": {
        "shop": "car_repair"
      }
    },
    {
      "type": "node",
      "id": 1104960670,
      "lat": 47.2332454,
      "lon": 39.7652357,
      "tags": {
        "addr:city": "Ростов-на-Дону",
        "addr:housenumber": "19/2",
        "addr:street": "площадь Толстого",
        "alt_name": "Пятерочка",
        "brand": "Пятёрочка",
        "brand:wikidata": "Q1768969",
        "brand:wikipedia": "ru:Пятёрочка",
        "contact:email": "vopros@5ka.ru",
        "contact:facebook": "https://www.facebook.com/pyaterochka",
        "contact:instagram": "https://www.instagram.com/pyaterochka_official",
        "contact:ok": "https://ok.ru/pyaterochka",
        "contact:phone": "+7 800 5555505",
        "contact:vk": "https://vk.com/club19098821",
        "contact:website": "https://5ka.ru",
        "name": "Пятёрочка",
        "name:ru": "Пятёрочка",
        "opening_hours": "Mo-Su 08:00-22:00",
        "phone": "8 800 555 55 05",
        "shop": "supermarket",
        "website": "https://5ka.ru/"
      }
    },
    {
      "type": "node",
      "id": 1106502573,
      "lat": 47.2662958,
      "lon": 39.7857113,
      "tags": {
        "addr:housenumber": "58/62",
        "addr:street": "Конституционная улица",
        "shop": "hairdresser"
      }
    },
    {
      "type": "node",
      "id": 1106502599,
      "lat": 47.2666218,
      "lon": 39.7860215,
      "tags": {
        "addr:housenumber": "58/62",
        "addr:street": "Конституционная улица",
        "brand": "Магнит",
        "brand:wikidata": "Q940518",
        "brand:wikipedia": "ru:Магнит (сеть магазинов)",
        "contact:email": "info@magnit.ru",
        "contact:phone": "+7 800 200-90-02",
        "contact:twitter": "https://twitter.com/magnit_info",
        "contact:website": "http://magnit-info.ru",
        "name": "Магнит",
        "name:en": "Magnit",
        "name:ru": "Магнит",
        "operator": "АО \"Тандер\"",
        "shop": "supermarket",
        "website": "http://www.magnit-info.ru"
      }
    },
    {
      "type": "node",
      "id": 1106505175,
      "lat": 47.2661187,
      "lon": 39.7855427,
      "tags": {
        "addr:housenumber": "58/62",
        "addr:street": "Конституционная улица",
        "shop": "clothes"
      }
    },
    {
      "type": "node",
      "id": 1113043565,
      "lat": 47.2009166,
      "lon": 39.6293682,
      "tags": {
        "addr:housenumber": "11",
        "addr:postcode": "344091",
        "addr:street": "Извилистая улица",
        "name": "Ассорти",
        "shop": "convenience"
      }
    },
    {
      "type": "node",
      "id": 1113189525,
      "lat": 47.2298576,
      "lon": 39.6109163,
      "tags": {
        "name": "Media Markt",
        "opening_hours": "Mo-Su 10:00-22:00",
        "shop": "electronics",
        "website": "http://www.mediamarkt.ru/stores/rnd-2/"
      }
    },
    {
      "type": "node",
      "id": 1115757177,
      "lat": 47.203939,
      "lon": 39.636988,
      "tags": {
        "name": "Тройка",
        "opening_hours": "Mo-Su 09:00-22:00",
        "shop": "supermarket",
        "source": "Yahoo"
      }
    },
    {
      "type": "node",
      "id": 1121522232,
      "lat": 47.2899387,
      "lon": 39.7092987,
      "tags": {
        "opening_hours": "Mo-Sa 09:00-19:00; Su 09:00-17:00",
        "shop": "hairdresser",
        "unisex": "yes"
      }
    },
    {
      "type": "node",
      "id": 1121532846,
      "lat": 47.2938747,
      "lon": 39.7144297,
      "tags": {
        "shop": "hairdresser"
      }
    },
    {
      "type": "node",
      "id": 1121532851,
      "lat": 47.2959865,
      "lon": 39.715192,
      "tags": {
        "shop": "hairdresser"
      }
    },
    {
      "type": "node",
      "id": 1127656806,
      "lat": 47.2295768,
      "lon": 39.6288087,
      "tags": {
        "addr:country": "RU",
        "alt_name": "Перекресток",
        "brand": "Перекрёсток",
        "brand:en": "Perekryostok",
        "brand:wikidata": "Q1684639",
        "brand:wikipedia": "en:Perekrestok (supermarket chain)",
        "contact:phone": "+7 (863) 206-18-51",
        "name": "Перекрёсток",
        "opening_hours": "24/7",
        "operator": "Торговый дом \"ПЕРЕКРЕСТОК\"",
        "shop": "supermarket",
        "website": "https://www.perekrestok.ru/"
      }
    },
    {
      "type": "node",
      "id": 1140770823,
      "lat": 47.2811377,
      "lon": 39.7663986,
      "tags": {
        "brand": "Магнит",
        "brand:wikidata": "Q940518",
        "brand:wikipedia": "ru:Магнит (сеть магазинов)",
        "contact:email": "info@magnit.ru",
        "contact:phone": "+7 800 200-90-02",
        "contact:twitter": "https://twitter.com/magnit_info",
        "contact:website": "http://magnit-info.ru",
        "name": "Магнит",
        "name:en": "Magnit",
        "name:ru": "Магнит",
        "operator": "АО \"Тандер\"",
        "shop": "supermarket",
        "website": "http://www.magnit-info.ru"
      }
    },
    {
      "type": "node",
      "id": 1152424961,
      "lat": 47.213543,
      "lon": 39.6378959,
      "tags": {
        "name": "Империя продуктов",
        "shop": "supermarket"
      }
    },
    {
      "type": "node",
      "id": 1163418094,
      "lat": 47.2794629,
      "lon": 39.7488801,
      "tags": {
        "shop": "convenience"
      }
    },
    {
      "type": "node",
      "id": 1179039404,
      "lat": 47.2300185,
      "lon": 39.6337215,
      "tags": {
        "addr:city": "Ростов-на-Дону",
        "addr:country": "RU",
        "addr:housenumber": "92 к1",
        "addr:street": "улица Содружества",
        "brand": "Магнит",
        "brand:wikidata": "Q940518",
        "brand:wikipedia": "ru:Магнит (сеть магазинов)",
        "contact:email": "info@magnit.ru",
        "contact:phone": "+7 800 200-90-02",
        "contact:twitter": "https://twitter.com/magnit_info",
        "contact:website": "http://magnit-info.ru",
        "name": "Магнит",
        "name:en": "Magnit",
        "name:ru": "Магнит",
        "operator": "АО \"Тандер\"",
        "shop": "supermarket",
        "website": "http://www.magnit-info.ru"
      }
    },
    {
      "type": "node",
      "id": 1179039422,
      "lat": 47.2305171,
      "lon": 39.6336895,
      "tags": {
        "addr:city": "Ростов-на-Дону",
        "addr:country": "RU",
        "addr:housenumber": "94 к2",
        "addr:street": "улица Содружества",
        "name": "Магнит Косметик",
        "opening_hours": "10:00-22:00",
        "operator": "АО «Тандер»",
        "shop": "chemist"
      }
    },
    {
      "type": "node",
      "id": 1180421903,
      "lat": 47.2303742,
      "lon": 39.629976,
      "tags": {
        "addr:city": "Ростов-на-Дону",
        "addr:country": "RU",
        "addr:housenumber": "68",
        "addr:street": "улица Зорге",
        "name": "Магистр",
        "opening_hours": "Mo-Sa 08:30-20:00; Su 10:00-18:00",
        "shop": "books",
        "website": "http://www.booka.ru/shops/6212"
      }
    },
    {
      "type": "node",
      "id": 1198838980,
      "lat": 47.2817422,
      "lon": 39.7637463,
      "tags": {
        "name": "Пятёрочка",
        "shop": "convenience"
      }
    },
    {
      "type": "node",
      "id": 1201804865,
      "lat": 47.2354201,
      "lon": 39.7158614,
      "tags": {
        "addr:street": "проспект Соколова",
        "name": "Великолукский",
        "shop": "butcher"
      }
    },
    {
      "type": "node",
      "id": 1204723333,
      "lat": 47.2335752,
      "lon": 39.716672,
      "tags": {
        "name": "Империя продуктов",
        "shop": "convenience"
      }
    },
    {
      "type": "node",
      "id": 1205502178,
      "lat": 47.2348947,
      "lon": 39.7155111,
      "tags": {
        "clothes": "sports",
        "shop": "clothes"
      }
    },
    {
      "type": "node",
      "id": 1205502196,
      "lat": 47.2339178,
      "lon": 39.7178452,
      "tags": {
        "shop": "convenience"
      }
    },
    {
      "type": "node",
      "id": 1205502197,
      "lat": 47.2352975,
      "lon": 39.7150239,
      "tags": {
        "name": "Антей",
        "shop": "computer"
      }
    },
    {
      "type": "node",
      "id": 1205502200,
      "lat": 47.234607,
      "lon": 39.7160959,
      "tags": {
        "addr:housenumber": "85",
        "addr:street": "проспект Соколова",
        "clothes": "children",
        "name": "Принцесса",
        "shop": "clothes"
      }
    },
    {
      "type": "node",
      "id": 1205509722,
      "lat": 47.2348321,
      "lon": 39.7131782,
      "tags": {
        "shop": "florist"
      }
    },
    {
      "type": "node",
      "id": 1205509723,
      "lat": 47.2349013,
      "lon": 39.713146,
      "tags": {
        "shop": "florist"
      }
    },
    {
      "type": "node",
      "id": 1205509724,
      "lat": 47.2313384,
      "lon": 39.7152744,
      "tags": {
        "addr:city": "Ростов-на-Дону",
        "addr:street": "Ворошиловский проспект",
        "name": "Бегeмотик",
        "shop": "toys"
      }
    },
    {
      "type": "node",
      "id": 1205509725,
      "lat": 47.2349776,
      "lon": 39.7130977,
      "tags": {
        "shop": "florist"
      }
    },
    {
      "type": "node",
      "id": 1205509726,
      "lat": 47.2350541,
      "lon": 39.7130548,
      "tags": {
        "shop": "florist"
      }
    },
    {
      "type": "node",
      "id": 1205714365,
      "lat": 47.2350822,
      "lon": 39.7165368,
      "tags": {
        "name": "Сатурн",
        "shop": "convenience"
      }
    },
    {
      "type": "node",
      "id": 1210185986,
      "lat": 47.227373,
      "lon": 39.6337427,
      "tags": {
        "name": "Молния",
        "shop": "tailor"
      }
    },
    {
      "type": "node",
      "id": 1210695242,
      "lat": 47.2344267,
      "lon": 39.715982,
      "tags": {
        "shop": "convenience"
      }
    },
    {
      "type": "node",
      "id": 1212214459,
      "lat": 47.2420186,
      "lon": 39.8332042,
      "tags": {
        "shop": "car_repair"
      }
    },
    {
      "type": "node",
      "id": 1213529005,
      "lat": 47.2204415,
      "lon": 39.7082038,
      "tags": {
        "addr:city": "Ростов-на-Дону",
        "addr:housenumber": "43",
        "addr:street": "Большая Садовая улица",
        "amenity": "cafe",
        "cuisine": "cake",
        "description": "банкетный зал",
        "name": "Золотой колос",
        "shop": "confectionery",
        "website": "https://www.zolotoykolos.ru/",
        "wheelchair": "no"
      }
    },
    {
      "type": "node",
      "id": 1217323430,
      "lat": 47.2317113,
      "lon": 39.7060616,
      "tags": {
        "name": "Изобилие",
        "shop": "convenience"
      }
    },
    {
      "type": "node",
      "id": 1217337868,
      "lat": 47.2315276,
      "lon": 39.7063749,
      "tags": {
        "shop": "convenience"
      }
    },
    {
      "type": "node",
      "id": 1224534802,
      "lat": 47.2536759,
      "lon": 39.7667519,
      "tags": {
        "amenity": "cafe",
        "name": "кофе-чай;Одежда - Обувь",
        "name:ru": "Одежда - Обувь",
        "shop": "clothes"
      }
    },
    {
      "type": "node",
      "id": 1224534810,
      "lat": 47.2544296,
      "lon": 39.7656779,
      "tags": {
        "name": "Торговый центр \"Сельмаш\"",
        "opening_hours": "Mo-Su 10:00-20:00",
        "shop": "mall"
      }
    },
    {
      "type": "node",
      "id": 1224534822,
      "lat": 47.2497666,
      "lon": 39.7684804,
      "tags": {
        "alt_name": "Пятерочка",
        "brand": "Пятёрочка",
        "brand:wikidata": "Q1768969",
        "brand:wikipedia": "ru:Пятёрочка",
        "contact:email": "vopros@5ka.ru",
        "contact:facebook": "https://www.facebook.com/pyaterochka",
        "contact:instagram": "https://www.instagram.com/pyaterochka_official",
        "contact:ok": "https://ok.ru/pyaterochka",
        "contact:phone": "+7 800 5555505",
        "contact:vk": "https://vk.com/club19098821",
        "contact:website": "https://5ka.ru",
        "name": "Пятёрочка",
        "name:en": "Pyaterochka",
        "name:ru": "Пятёрочка",
        "shop": "supermarket"
      }
    },
    {
      "type": "node",
      "id": 1224534855,
      "lat": 47.256278,
      "lon": 39.7696877,
      "tags": {
        "name": "солнечный круг",
        "shop": "supermarket"
      }
    },
    {
      "type": "node",
      "id": 1224534860,
      "lat": 47.2563331,
      "lon": 39.7662381,
      "tags": {
        "name": "магнит",
        "shop": "supermarket"
      }
    },
    {
      "type": "node",
      "id": 1226441302,
      "lat": 47.2663373,
      "lon": 39.683491,
      "tags": {
        "amenity": "fuel",
        "brand": "Лукойл",
        "contact:phone": "+7 800 1000911",
        "contact:website": "https://lukoil.ru/",
        "fuel:diesel": "yes",
        "fuel:octane_100": "yes",
        "fuel:octane_92": "yes",
        "fuel:octane_95": "yes",
        "name": "Лукойл",
        "name:en": "Lukoil",
        "name:ru": "Лукойл",
        "opening_hours": "24/7",
        "operator": "ООО \"ЛУКОЙЛ-Югнефтепродукт\"",
        "ref": "61299",
        "shop": "yes",
        "toilets": "yes"
      }
    },
    {
      "type": "node",
      "id": 1228936126,
      "lat": 47.2316689,
      "lon": 39.6181578,
      "tags": {
        "name": "Апекс",
        "shop": "supermarket"
      }
    },
    {
      "type": "node",
      "id": 1240943638,
      "lat": 47.2286001,
      "lon": 39.753096,
      "tags": {
        "name": "Конфискат",
        "shop": "clothes"
      }
    },
    {
      "type": "node",
      "id": 1252673101,
      "lat": 47.1915402,
      "lon": 39.6317251,
      "tags": {
        "name": "Шиномонтаж",
        "service": "tyres",
        "shop": "car_repair"
      }
    },
    {
      "type": "node",
      "id": 1254804826,
      "lat": 47.2749002,
      "lon": 39.8106729,
      "tags": {
        "name": "Автокит",
        "shop": "car_repair"
      }
    },
    {
      "type": "node",
      "id": 1271071513,
      "lat": 47.232051,
      "lon": 39.7601049,
      "tags": {
        "name": "Лебединский торговый дом",
        "shop": "electronics"
      }
    },
    {
      "type": "node",
      "id": 1307413334,
      "lat": 47.2005011,
      "lon": 39.629368,
      "tags": {
        "addr:housenumber": "11",
        "addr:postcode": "344091",
        "addr:street": "Извилистая улица",
        "brand": "Магнит",
        "brand:wikidata": "Q940518",
        "brand:wikipedia": "ru:Магнит (сеть магазинов)",
        "contact:email": "info@magnit.ru",
        "contact:phone": "+7 800 200-90-02",
        "contact:twitter": "https://twitter.com/magnit_info",
        "contact:website": "http://magnit-info.ru",
        "int_name": "Magnit",
        "name": "Магнит",
        "name:en": "Magnit",
        "name:ru": "Магнит",
        "operator": "АО \"Тандер\"",
        "shop": "supermarket",
        "website": "http://www.magnit-info.ru"
      }
    },
    {
      "type": "node",
      "id": 1318420551,
      "lat": 47.2201215,
      "lon": 39.7068286,
      "tags": {
        "name": "Дом книги",
        "shop": "books"
      }
    },
    {
      "type": "node",
      "id": 1358296042,
      "lat": 47.2606775,
      "lon": 39.6896477,
      "tags": {
        "name": "\"Ассорти\"",
        "opening_hours": "24/7",
        "shop": "convenience"
      }
    },
    {
      "type": "node",
      "id": 1358296044,
      "lat": 47.2603096,
      "lon": 39.6900645,
      "tags": {
        "alt_name": "Пятерочка",
        "name": "\"Пятёрочка\"",
        "opening_hours": "09:00-22:00",
        "shop": "convenience",
        "website": "http://e5.ru/"
      }
    },
    {
      "type": "node",
      "id": 1410779417,
      "lat": 47.2057003,
      "lon": 39.6810757,
      "tags": {
        "shop": "convenience"
      }
    },
    {
      "type": "node",
      "id": 1410779463,
      "lat": 47.2049431,
      "lon": 39.6787332,
      "tags": {
        "shop": "convenience"
      }
    },
    {
      "type": "node",
      "id": 1410779472,
      "lat": 47.2047337,
      "lon": 39.6780041,
      "tags": {
        "shop": "convenience"
      }
    },
    {
      "type": "node",
      "id": 1415713913,
      "lat": 47.2280626,
      "lon": 39.6288674,
      "tags": {
        "name": "Виктория",
        "shop": "supermarket"
      }
    },
    {
      "type": "node",
      "id": 1415713916,
      "lat": 47.2271738,
      "lon": 39.628862,
      "tags": {
        "shop": "books"
      }
    },
    {
      "type": "node",
      "id": 1415726387,
      "lat": 47.2212486,
      "lon": 39.630907,
      "tags": {
        "brand": "Магнит",
        "brand:wikidata": "Q940518",
        "brand:wikipedia": "ru:Магнит (сеть магазинов)",
        "contact:email": "info@magnit.ru",
        "contact:phone": "+7 800 200-90-02",
        "contact:twitter": "https://twitter.com/magnit_info",
        "contact:website": "http://magnit-info.ru",
        "name": "Магнит",
        "name:en": "Magnit",
        "name:ru": "Магнит",
        "opening_hours": "Mo-Su,PH 09:00-22:30",
        "operator": "АО \"Тандер\"",
        "shop": "supermarket",
        "website": "http://www.magnit-info.ru"
      }
    },
    {
      "type": "node",
      "id": 1415726398,
      "lat": 47.2269916,
      "lon": 39.6284812,
      "tags": {
        "alt_name": "Пятерочка",
        "brand": "Пятёрочка",
        "brand:wikidata": "Q1768969",
        "brand:wikipedia": "ru:Пятёрочка",
        "contact:email": "vopros@5ka.ru",
        "contact:facebook": "https://www.facebook.com/pyaterochka",
        "contact:instagram": "https://www.instagram.com/pyaterochka_official",
        "contact:ok": "https://ok.ru/pyaterochka",
        "contact:phone": "+7 800 5555505",
        "contact:vk": "https://vk.com/club19098821",
        "contact:website": "https://5ka.ru",
        "name": "Пятёрочка",
        "name:ru": "Пятёрочка",
        "shop": "supermarket",
        "website": "http://e5.ru/"
      }
    },
    {
      "type": "node",
      "id": 1417989108,
      "lat": 47.2271397,
      "lon": 39.6239884,
      "tags": {
        "shop": "convenience"
      }
    },
    {
      "type": "node",
      "id": 1423726881,
      "lat": 47.2253141,
      "lon": 39.699511,
      "tags": {
        "name": "Ассорти",
        "shop": "convenience",
        "wheelchair": "no"
      }
    },
    {
      "type": "node",
      "id": 1425844386,
      "lat": 47.2329841,
      "lon": 39.7434506,
      "tags": {
        "shop": "car_repair"
      }
    },
    {
      "type": "node",
      "id": 1428641165,
      "lat": 47.2126863,
      "lon": 39.6265638,
      "tags": {
        "brand": "Магнит",
        "brand:wikidata": "Q940518",
        "brand:wikipedia": "ru:Магнит (сеть магазинов)",
        "contact:email": "info@magnit.ru",
        "contact:phone": "+7 800 200-90-02",
        "contact:twitter": "https://twitter.com/magnit_info",
        "contact:website": "http://magnit-info.ru",
        "name": "Магнит",
        "name:en": "Magnit",
        "name:ru": "Магнит",
        "operator": "АО \"Тандер\"",
        "shop": "supermarket",
        "website": "http://www.magnit-info.ru"
      }
    },
    {
      "type": "node",
      "id": 1428816745,
      "lat": 47.2076684,
      "lon": 39.6265185,
      "tags": {
        "description": "Расписание по праздникам то же, что по выходным дням",
        "name": "Любимчик",
        "opening_hours": "Mo-Fr 09:00-19:00; Sa, Su 09:00-18:00",
        "shop": "pet"
      }
    },
    {
      "type": "node",
      "id": 1428816746,
      "lat": 47.2067199,
      "lon": 39.6290613,
      "tags": {
        "name": "Парикмахерская",
        "shop": "hairdresser"
      }
    },
    {
      "type": "node",
      "id": 1428816747,
      "lat": 47.2067163,
      "lon": 39.6289696,
      "tags": {
        "shop": "convenience"
      }
    },
    {
      "type": "node",
      "id": 1428816751,
      "lat": 47.2076684,
      "lon": 39.6263215,
      "tags": {
        "opening_hours": "24/7",
        "payment:credit_cards": "no",
        "payment:debit_cards": "no",
        "shop": "convenience"
      }
    },
    {
      "type": "node",
      "id": 1449010891,
      "lat": 47.2942406,
      "lon": 39.7062191,
      "tags": {
        "name": "Билд",
        "shop": "doityourself"
      }
    },
    {
      "type": "node",
      "id": 1456633906,
      "lat": 47.2329412,
      "lon": 39.7345846,
      "tags": {
        "alt_name": "Пятерочка",
        "brand": "Пятёрочка",
        "brand:wikidata": "Q1768969",
        "brand:wikipedia": "ru:Пятёрочка",
        "contact:email": "vopros@5ka.ru",
        "contact:facebook": "https://www.facebook.com/pyaterochka",
        "contact:instagram": "https://www.instagram.com/pyaterochka_official",
        "contact:ok": "https://ok.ru/pyaterochka",
        "contact:phone": "+7 800 5555505",
        "contact:vk": "https://vk.com/club19098821",
        "contact:website": "https://5ka.ru",
        "name": "Пятёрочка",
        "name:ru": "Пятёрочка",
        "shop": "supermarket"
      }
    },
    {
      "type": "node",
      "id": 1457465207,
      "lat": 47.234456,
      "lon": 39.7383424,
      "tags": {
        "shop": "car_repair"
      }
    },
    {
      "type": "node",
      "id": 1457465210,
      "lat": 47.2362603,
      "lon": 39.7360699,
      "tags": {
        "name": "Автосервис (Сход-развал)",
        "shop": "car_repair"
      }
    },
    {
      "type": "node",
      "id": 1457465213,
      "lat": 47.2365258,
      "lon": 39.7371311,
      "tags": {
        "shop": "car_repair"
      }
    },
    {
      "type": "node",
      "id": 1457518900,
      "lat": 47.2831086,
      "lon": 39.7569648,
      "tags": {
        "name": "Рынок \"Сельмаш\"",
        "name:ru": "Рынок \"Сельмаш\"",
        "shop": "supermarket"
      }
    },
    {
      "type": "node",
      "id": 1457518924,
      "lat": 47.2817462,
      "lon": 39.7570657,
      "tags": {
        "shop": "supermarket"
      }
    },
    {
      "type": "node",
      "id": 1457518967,
      "lat": 47.2817357,
      "lon": 39.7604447,
      "tags": {
        "shop": "convenience"
      }
    },
    {
      "type": "node",
      "id": 1457518973,
      "lat": 47.2827215,
      "lon": 39.756061,
      "tags": {
        "name": "Автомагазин",
        "shop": "doityourself"
      }
    },
    {
      "type": "node",
      "id": 1458463326,
      "lat": 47.2513105,
      "lon": 39.7797628,
      "tags": {
        "shop": "tyres"
      }
    },
    {
      "type": "node",
      "id": 1459721799,
      "lat": 47.2330053,
      "lon": 39.7345555,
      "tags": {
        "contact:email": "24@mvideo.ru",
        "contact:facebook": "https://www.facebook.com/mvideo.ru",
        "contact:instagram": "https://www.instagram.com/mvideo_ru/",
        "contact:ok": "https://ok.ru/mvideo",
        "contact:phone": "+7 800 6007775",
        "contact:twitter": "https://twitter.com/mvideo",
        "contact:vk": "https://vk.com/mvideo",
        "contact:website": "https://mvideo.ru/",
        "description": "«М.Видео» — одна из крупнейших европейских компаний в сегменте бытовой техники и электроники. Более 20 тысяч наименований товаров, техники, надежный сервис и самые выгодные предложения на рынке.",
        "name": "М.видео",
        "opening_hours": "Mo-Su 09:00-23:00",
        "operator": "МВМ",
        "shop": "electronics"
      }
    },
    {
      "type": "node",
      "id": 1462117965,
      "lat": 47.2339094,
      "lon": 39.7133895,
      "tags": {
        "name": "Мое солнышко",
        "shop": "toys"
      }
    },
    {
      "type": "node",
      "id": 1465301358,
      "lat": 47.281132,
      "lon": 39.7175391,
      "tags": {
        "alt_name": "ДНС",
        "brand": "DNS",
        "brand:en": "DNS",
        "brand:ru": "ДНС",
        "brand:wikidata": "Q4036922",
        "brand:wikipedia": "DNS (сеть магазинов)",
        "contact:email": "fomin.ig@dns-shop.ru",
        "contact:facebook": "https://www.facebook.com/dnsshop",
        "contact:phone": "+7 800 7707999",
        "contact:twitter": "https://twitter.com/dnsshop",
        "contact:vk": "https://vk.com/dnsstore",
        "contact:website": "https://www.dns-shop.ru/",
        "contact:youtube": "https://www.youtube.com/c/DNSSHOPvideo",
        "name": "DNS",
        "name:en": "DNS",
        "name:ru": "ДНС",
        "opening_hours": "Mo-Su 10:00-22:00",
        "operator": "ДНС Ритейл",
        "shop": "electronics"
      }
    },
    {
      "type": "node",
      "id": 1467929377,
      "lat": 47.2368738,
      "lon": 39.7428352,
      "tags": {
        "name": "РСТОА-1",
        "shop": "car_repair"
      }
    },
    {
      "type": "node",
      "id": 1470257374,
      "lat": 47.2886991,
      "lon": 39.7410883,
      "tags": {
        "name": "Магазин \"Магнит\"",
        "shop": "supermarket"
      }
    },
    {
      "type": "node",
      "id": 1470266535,
      "lat": 47.2869192,
      "lon": 39.7440863,
      "tags": {
        "shop": "convenience"
      }
    },
    {
      "type": "node",
      "id": 1470268356,
      "lat": 47.2869666,
      "lon": 39.7443922,
      "tags": {
        "shop": "convenience"
      }
    },
    {
      "type": "node",
      "id": 1470683904,
      "lat": 47.2330082,
      "lon": 39.7348845,
      "tags": {
        "name": "Поиск",
        "name:en": "Poisk Home",
        "shop": "electronics",
        "website": "https://poiskhome.ru/"
      }
    },
    {
      "type": "node",
      "id": 1470683905,
      "lat": 47.2328899,
      "lon": 39.7342086,
      "tags": {
        "name": "Смешные цены",
        "shop": "supermarket"
      }
    },
    {
      "type": "node",
      "id": 1470737643,
      "lat": 47.288539,
      "lon": 39.7418657,
      "tags": {
        "shop": "convenience"
      }
    },
    {
      "type": "node",
      "id": 1470738995,
      "lat": 47.2902854,
      "lon": 39.7359098,
      "tags": {
        "addr:housenumber": "23В",
        "addr:street": "улица Штахановского",
        "name": "ТСЦ \"Покрышкино\"",
        "shop": "car_repair",
        "website": "https://www.pokrishkino.ru/"
      }
    },
    {
      "type": "node",
      "id": 1471112050,
      "lat": 47.2868094,
      "lon": 39.7460066,
      "tags": {
        "name": "Магазин",
        "shop": "supermarket"
      }
    },
    {
      "type": "node",
      "id": 1471387611,
      "lat": 47.2787174,
      "lon": 39.7099604,
      "tags": {
        "name": "Магазин",
        "shop": "convenience"
      }
    },
    {
      "type": "node",
      "id": 1471387616,
      "lat": 47.2803064,
      "lon": 39.7099764,
      "tags": {
        "name": "Магазин \"АТЕС\"",
        "shop": "convenience"
      }
    },
    {
      "type": "node",
      "id": 1471387748,
      "lat": 47.278676,
      "lon": 39.7063822,
      "tags": {
        "name": "Магазин",
        "shop": "convenience"
      }
    },
    {
      "type": "node",
      "id": 1471387761,
      "lat": 47.2803355,
      "lon": 39.7132379,
      "tags": {
        "name": "Магазин",
        "shop": "convenience"
      }
    },
    {
      "type": "node",
      "id": 1475118778,
      "lat": 47.2329604,
      "lon": 39.730954,
      "tags": {
        "name": "Kawasaki",
        "shop": "motorcycle"
      }
    },
    {
      "type": "node",
      "id": 1476116515,
      "lat": 47.2198074,
      "lon": 39.7193757,
      "tags": {
        "addr:city": "Ростов-на-Дону",
        "addr:country": "RU",
        "addr:housenumber": "31",
        "addr:street": "Ворошиловский проспект",
        "clothes": "women",
        "name": "ELIS",
        "shop": "clothes",
        "website": "https://www.elis-shop.ru/"
      }
    },
    {
      "type": "node",
      "id": 1476116531,
      "lat": 47.220041,
      "lon": 39.7192669,
      "tags": {
        "addr:city": "Ростов-на-Дону",
        "addr:country": "RU",
        "addr:housenumber": "31",
        "addr:street": "Ворошиловский проспект",
        "clothes": "men",
        "name": "MODER",
        "opening_hours": "Mo-Sa 10:00-20:00;Su 10:00-18:00",
        "phone": "+7 863 2620787",
        "shop": "clothes",
        "website": "https://www.moder.ru/"
      }
    },
    {
      "type": "node",
      "id": 1481065679,
      "lat": 47.2833992,
      "lon": 39.7607311,
      "tags": {
        "shop": "butcher"
      }
    },
    {
      "type": "node",
      "id": 1481069309,
      "lat": 47.2817558,
      "lon": 39.7623365,
      "tags": {
        "shop": "convenience"
      }
    },
    {
      "type": "node",
      "id": 1481069483,
      "lat": 47.2818285,
      "lon": 39.7625189,
      "tags": {
        "shop": "convenience"
      }
    },
    {
      "type": "node",
      "id": 1481069521,
      "lat": 47.2818649,
      "lon": 39.7623902,
      "tags": {
        "shop": "hairdresser"
      }
    },
    {
      "type": "node",
      "id": 1481069982,
      "lat": 47.2814064,
      "lon": 39.7633021,
      "tags": {
        "shop": "kiosk"
      }
    },
    {
      "type": "node",
      "id": 1481070410,
      "lat": 47.2810425,
      "lon": 39.7635167,
      "tags": {
        "shop": "convenience"
      }
    },
    {
      "type": "node",
      "id": 1481070411,
      "lat": 47.281108,
      "lon": 39.7632806,
      "tags": {
        "shop": "greengrocer"
      }
    },
    {
      "type": "node",
      "id": 1481070523,
      "lat": 47.282076,
      "lon": 39.7631841,
      "tags": {
        "shop": "alcohol"
      }
    },
    {
      "type": "node",
      "id": 1482152360,
      "lat": 47.2395887,
      "lon": 39.732167,
      "tags": {
        "name": "Автомагазин",
        "shop": "car"
      }
    },
    {
      "type": "node",
      "id": 1489402829,
      "lat": 47.2254937,
      "lon": 39.7049307,
      "tags": {
        "contact:email": "onlineshop@mozart-house.com",
        "contact:phone": "+7 863 2061515;+7 961 3265635",
        "contact:website": "https://mozarthouse-shop.ru",
        "name": "Mozart House",
        "opening_hours": "Mo-Su 09:00-19:00",
        "shop": "cosmetics"
      }
    },
    {
      "type": "node",
      "id": 1489403593,
      "lat": 47.2256676,
      "lon": 39.705789,
      "tags": {
        "shop": "florist"
      }
    },
    {
      "type": "node",
      "id": 1489403709,
      "lat": 47.2255729,
      "lon": 39.7045766,
      "tags": {
        "shop": "clothes"
      }
    },
    {
      "type": "node",
      "id": 1489404332,
      "lat": 47.2252596,
      "lon": 39.7061323,
      "tags": {
        "shop": "clothes"
      }
    },
    {
      "type": "node",
      "id": 1489406395,
      "lat": 47.2258654,
      "lon": 39.7036583,
      "tags": {
        "name": "Маракеш",
        "shop": "clothes"
      }
    },
    {
      "type": "node",
      "id": 1491091287,
      "lat": 47.2629824,
      "lon": 39.6695939,
      "tags": {
        "shop": "supermarket"
      }
    },
    {
      "type": "node",
      "id": 1491091297,
      "lat": 47.2663841,
      "lon": 39.665621,
      "tags": {
        "shop": "supermarket"
      }
    },
    {
      "type": "node",
      "id": 1503756263,
      "lat": 47.2052276,
      "lon": 39.7281416,
      "tags": {
        "addr:city": "Ростов-на-Дону",
        "addr:country": "RU",
        "addr:housenumber": "1Ж",
        "addr:postcode": "344002",
        "addr:street": "Пойменная улица",
        "email": "mebelmall@mail.ru",
        "name": "Мебель Молл",
        "phone": "+7 863 2054001",
        "shop": "mall",
        "website": "http://mebelmall.net/#home"
      }
    },
    {
      "type": "node",
      "id": 1516230464,
      "lat": 47.2727501,
      "lon": 39.712061,
      "tags": {
        "shop": "convenience"
      }
    },
    {
      "type": "node",
      "id": 1516230472,
      "lat": 47.2727355,
      "lon": 39.7119913,
      "tags": {
        "shop": "convenience"
      }
    },
    {
      "type": "node",
      "id": 1523701193,
      "lat": 47.2627938,
      "lon": 39.6630401,
      "tags": {
        "shop": "convenience"
      }
    },
    {
      "type": "node",
      "id": 1531148869,
      "lat": 47.2200829,
      "lon": 39.6324097,
      "tags": {
        "name": "Хлебный",
        "opening_hours": "Mo-Su 08:00-21:00",
        "shop": "bakery"
      }
    },
    {
      "type": "node",
      "id": 1531148877,
      "lat": 47.2207362,
      "lon": 39.6321663,
      "tags": {
        "amenity": "pharmacy",
        "healthcare": "pharmacy",
        "name": "Юг-Фарма",
        "opening_hours": "Mo-Su,PH 08:00-21:00",
        "shop": "stationery"
      }
    },
    {
      "type": "node",
      "id": 1545040548,
      "lat": 47.2759433,
      "lon": 39.7798265,
      "tags": {
        "shop": "greengrocer"
      }
    },
    {
      "type": "node",
      "id": 1545040556,
      "lat": 47.2756024,
      "lon": 39.7796396,
      "tags": {
        "name": "У Иваныча",
        "shop": "convenience"
      }
    },
    {
      "type": "node",
      "id": 1545040558,
      "lat": 47.2750536,
      "lon": 39.7777348,
      "tags": {
        "shop": "convenience"
      }
    },
    {
      "type": "node",
      "id": 1550998802,
      "lat": 47.2266889,
      "lon": 39.7522029,
      "tags": {
        "contact:phone": "+7 800 7001077",
        "contact:website": "https://myfasol.ru",
        "name": "Фасоль",
        "opening_hours": "Mo-Su 08:00-22:00",
        "shop": "convenience"
      }
    },
    {
      "type": "node",
      "id": 1562702647,
      "lat": 47.2204184,
      "lon": 39.6913263,
      "tags": {
        "amenity": "fuel",
        "brand": "Лукойл",
        "contact:phone": "+7 800 1000911",
        "contact:website": "https://lukoil.ru/",
        "fuel:diesel": "yes",
        "fuel:octane_100": "yes",
        "fuel:octane_92": "yes",
        "fuel:octane_95": "yes",
        "name": "Лукойл",
        "name:en": "Lukoil",
        "name:ru": "Лукойл",
        "opening_hours": "24/7",
        "operator": "ООО \"ЛУКОЙЛ-Югнефтепродукт\"",
        "payment:cash": "yes",
        "payment:credit_cards": "yes",
        "payment:debit_cards": "yes",
        "payment:mastercard": "yes",
        "payment:visa": "yes",
        "ref": "61287",
        "shop": "yes"
      }
    },
    {
      "type": "node",
      "id": 1596062634,
      "lat": 47.2497006,
      "lon": 39.6966765,
      "tags": {
        "addr:housenumber": "65А",
        "addr:street": "проспект Ленина",
        "alt_name": "Тавр",
        "name": "Тавровские мясные лавки",
        "shop": "butcher",
        "website": "http://www.meatlavka.ru/"
      }
    },
    {
      "type": "node",
      "id": 1596063014,
      "lat": 47.249293,
      "lon": 39.6967643,
      "tags": {
        "name": "Универмаг",
        "shop": "convenience"
      }
    },
    {
      "type": "node",
      "id": 1596063694,
      "lat": 47.2503476,
      "lon": 39.6883811,
      "tags": {
        "addr:city": "Ростов-на-Дону",
        "addr:housenumber": "42Г",
        "addr:postcode": "344079",
        "addr:street": "проспект Ленина",
        "description": "Сеть магазинов \"Ассорти\"",
        "name": "ассорти",
        "shop": "convenience",
        "website": "http://assorty-rnd.ru/"
      }
    },
    {
      "type": "node",
      "id": 1596076746,
      "lat": 47.249056,
      "lon": 39.6978536,
      "tags": {
        "name": "Мини-маркет \"Добрыня\"",
        "shop": "supermarket"
      }
    },
    {
      "type": "node",
      "id": 1596389359,
      "lat": 47.2585908,
      "lon": 39.6929057,
      "tags": {
        "name": "Анастасия",
        "shop": "hairdresser"
      }
    },
    {
      "type": "node",
      "id": 1596397523,
      "lat": 47.2526415,
      "lon": 39.6889236,
      "tags": {
        "shop": "convenience"
      }
    },
    {
      "type": "node",
      "id": 1596418053,
      "lat": 47.2500878,
      "lon": 39.6884068,
      "tags": {
        "addr:city": "Ростов-на-Дону",
        "addr:country": "RU",
        "addr:housenumber": "37",
        "addr:street": "проспект Ленина",
        "craft": "confectionery",
        "name": "Золотой колос",
        "shop": "confectionery"
      }
    },
    {
      "type": "node",
      "id": 1596418074,
      "lat": 47.2500826,
      "lon": 39.6879859,
      "tags": {
        "name": "Московская портьерная компания",
        "shop": "curtain"
      }
    },
    {
      "type": "node",
      "id": 1597410720,
      "lat": 47.2501829,
      "lon": 39.6847583,
      "tags": {
        "shop": "convenience"
      }
    },
    {
      "type": "node",
      "id": 1598731764,
      "lat": 47.281799,
      "lon": 39.7079244,
      "tags": {
        "shop": "convenience"
      }
    },
    {
      "type": "node",
      "id": 1615861392,
      "lat": 47.2502482,
      "lon": 39.6819144,
      "tags": {
        "addr:city": "Ростов-на-Дону",
        "addr:country": "RU",
        "addr:housenumber": "7",
        "addr:street": "проспект Ленина",
        "name": "Автозапчасти",
        "shop": "car"
      }
    },
    {
      "type": "node",
      "id": 1617908894,
      "lat": 47.20164,
      "lon": 39.629181,
      "tags": {
        "name": "Дольче Вита",
        "shop": "hairdresser"
      }
    },
    {
      "type": "node",
      "id": 1628496997,
      "lat": 47.2172668,
      "lon": 39.703256,
      "tags": {
        "name": "Грифон-В",
        "shop": "hunting"
      }
    },
    {
      "type": "node",
      "id": 1636887620,
      "lat": 47.2506122,
      "lon": 39.7655066,
      "tags": {
        "name": "Пятёрочка",
        "opening_hours": "Mo-Su 09:00-23:00",
        "shop": "convenience"
      }
    },
    {
      "type": "node",
      "id": 1636887628,
      "lat": 47.2511262,
      "lon": 39.765536,
      "tags": {
        "shop": "convenience"
      }
    },
    {
      "type": "node",
      "id": 1636970308,
      "lat": 47.2177154,
      "lon": 39.584825,
      "tags": {
        "shop": "convenience"
      }
    },
    {
      "type": "node",
      "id": 1641658536,
      "lat": 47.2629723,
      "lon": 39.6601719,
      "tags": {
        "shop": "convenience"
      }
    },
    {
      "type": "node",
      "id": 1643051803,
      "lat": 47.2252436,
      "lon": 39.7508516,
      "tags": {
        "brand": "Магнит",
        "brand:en": "Magnit",
        "brand:wikidata": "Q940518",
        "brand:wikipedia": "ru:Магнит (сеть магазинов)",
        "check_date": "2022-05-17",
        "contact:email": "info@magnit.ru",
        "contact:phone": "+7 800 200-90-02",
        "contact:twitter": "https://twitter.com/magnit_info",
        "contact:website": "http://magnit-info.ru",
        "internet_access": "no",
        "name": "Магнит",
        "name:en": "Magnit",
        "name:ru": "Магнит",
        "opening_hours": "08:00-22:00",
        "operator": "АО \"Тандер\"",
        "payment:mastercard": "yes",
        "payment:visa": "yes",
        "shop": "supermarket",
        "website": "http://www.magnit-info.ru",
        "wheelchair": "limited"
      }
    },
    {
      "type": "node",
      "id": 1643350857,
      "lat": 47.2249084,
      "lon": 39.7367372,
      "tags": {
        "name": "Красное и Белое, алкомаркет",
        "opening_hours": "PH,Mo-Su 09:00-22:05",
        "shop": "supermarket",
        "website": "https://krasnoeibeloe.ru/"
      }
    },
    {
      "type": "node",
      "id": 1644002651,
      "lat": 47.2170002,
      "lon": 39.700698,
      "tags": {
        "shop": "hairdresser"
      }
    },
    {
      "type": "node",
      "id": 1650267366,
      "lat": 47.2314938,
      "lon": 39.7283229,
      "tags": {
        "name": "Апекс",
        "operator": "Апекс",
        "shop": "supermarket"
      }
    },
    {
      "type": "node",
      "id": 1660042315,
      "lat": 47.2035571,
      "lon": 39.7236247,
      "tags": {
        "addr:city": "Ростов-на-Дону",
        "addr:country": "RU",
        "addr:housenumber": "1",
        "addr:street": "Пойменная улица",
        "brand": "Ашан",
        "brand:en": "Auchan",
        "brand:fr": "Auchan",
        "brand:wikidata": "Q758603",
        "brand:wikipedia": "ru:Auchan",
        "level": "1",
        "name": "Ашан",
        "name:en": "Auchan",
        "name:fr": "Auchan",
        "opening_hours": "Mo-Su 08:30-23:00",
        "operator": "Ашан",
        "payment:android_pay": "yes",
        "payment:apple_pay": "yes",
        "payment:contactless": "yes",
        "payment:mastercard": "yes",
        "payment:mir": "yes",
        "payment:money_order": "yes",
        "payment:samsung_pay": "yes",
        "payment:visa": "yes",
        "payment:visa_electron": "yes",
        "phone": "+7 800 7005800",
        "shop": "supermarket",
        "website": "https://www.auchan.ru/ru/megamag-info"
      }
    },
    {
      "type": "node",
      "id": 1660225591,
      "lat": 47.2647182,
      "lon": 39.8147616,
      "tags": {
        "addr:city": "Ростов-на-Дону",
        "addr:housenumber": "292",
        "addr:postcode": "344009",
        "addr:street": "проспект Шолохова",
        "contact:phone": "+7 800 7001077",
        "contact:website": "https://myfasol.ru",
        "name": "Фасоль",
        "opening_hours": "Mo-Su 08:00-22:00",
        "payment:cards": "yes",
        "payment:cash": "yes",
        "shop": "convenience"
      }
    },
    {
      "type": "node",
      "id": 1678248140,
      "lat": 47.2885047,
      "lon": 39.6937573,
      "tags": {
        "name": "Интерио",
        "shop": "furniture"
      }
    },
    {
      "type": "node",
      "id": 1688832962,
      "lat": 47.2316997,
      "lon": 39.7653219,
      "tags": {
        "addr:full": "Ростовская обл., г. Ростов-на-Дону, пл. Толстого, 6-а",
        "addr:housenumber": "6А",
        "addr:street": "площадь Толстого",
        "category": "Земли поселений (земли населенных пунктов)",
        "name": "Лента",
        "shop": "convenience",
        "source": "rosreestr",
        "utilization": "Для строительства торгового центра"
      }
    },
    {
      "type": "node",
      "id": 1719192204,
      "lat": 47.219977,
      "lon": 39.6846534,
      "tags": {
        "addr:city": "Ростов-на-Дону",
        "addr:housenumber": "1/22",
        "addr:street": "улица Собино",
        "shop": "convenience"
      }
    },
    {
      "type": "node",
      "id": 1740503154,
      "lat": 47.2844221,
      "lon": 39.7263293,
      "tags": {
        "addr:country": "RU",
        "addr:housenumber": "217",
        "addr:street": "Белорусская улица",
        "name": "\"Фаэтон\" автозапчасти",
        "shop": "car_repair"
      }
    },
    {
      "type": "node",
      "id": 1740513134,
      "lat": 47.284404,
      "lon": 39.726104,
      "tags": {
        "addr:country": "RU",
        "addr:housenumber": "217",
        "addr:street": "Белорусская улица",
        "name": "\"Фаэтон\" автосервис автомобилей Форд, Мазда.",
        "shop": "car_repair",
        "website": "http://www.faeton-rostov.ru"
      }
    },
    {
      "type": "node",
      "id": 1770371357,
      "lat": 47.2153332,
      "lon": 39.6167539,
      "tags": {
        "shop": "alcohol"
      }
    },
    {
      "type": "node",
      "id": 1780440273,
      "lat": 47.2149714,
      "lon": 39.7043037,
      "tags": {
        "name": "Продукты",
        "shop": "convenience"
      }
    },
    {
      "type": "node",
      "id": 1781691589,
      "lat": 47.2217551,
      "lon": 39.6141757,
      "tags": {
        "name": "Renault Авингруп",
        "shop": "car"
      }
    },
    {
      "type": "node",
      "id": 1781692470,
      "lat": 47.2223907,
      "lon": 39.614262,
      "tags": {
        "name": "Автосервис 369",
        "opening_hours": "Mo-Fr 09:00-18:00",
        "phone": "+7 (863) 320 30 16",
        "shop": "car_repair",
        "website": "https://sto369.ru/"
      }
    },
    {
      "type": "node",
      "id": 1781877603,
      "lat": 47.2292638,
      "lon": 39.7353463,
      "tags": {
        "name": "Продукты",
        "shop": "convenience"
      }
    },
    {
      "type": "node",
      "id": 1804745118,
      "lat": 47.2162151,
      "lon": 39.7119686,
      "tags": {
        "name": "Ножи",
        "shop": "outdoor"
      }
    },
    {
      "type": "node",
      "id": 1805340851,
      "lat": 47.2373552,
      "lon": 39.820649,
      "tags": {
        "name": "Ваш Дом",
        "shop": "hardware"
      }
    },
    {
      "type": "node",
      "id": 1805340861,
      "lat": 47.2383573,
      "lon": 39.828597,
      "tags": {
        "alt_name": "Пятерочка",
        "brand": "Пятёрочка",
        "brand:wikidata": "Q1768969",
        "brand:wikipedia": "ru:Пятёрочка",
        "contact:email": "vopros@5ka.ru",
        "contact:facebook": "https://www.facebook.com/pyaterochka",
        "contact:instagram": "https://www.instagram.com/pyaterochka_official",
        "contact:ok": "https://ok.ru/pyaterochka",
        "contact:phone": "+7 800 5555505",
        "contact:vk": "https://vk.com/club19098821",
        "contact:website": "https://5ka.ru",
        "name": "Пятёрочка",
        "name:ru": "Пятёрочка",
        "shop": "supermarket"
      }
    },
    {
      "type": "node",
      "id": 1805340865,
      "lat": 47.2374493,
      "lon": 39.8213785,
      "tags": {
        "name": "Хозяйственный магазин",
        "opening_hours": "09:00-19:00",
        "shop": "hardware"
      }
    },
    {
      "type": "node",
      "id": 1821517623,
      "lat": 47.2134778,
      "lon": 39.6866665,
      "tags": {
        "addr:city": "Ростов-на-Дону",
        "addr:housenumber": "4/51",
        "addr:street": "Медный переулок",
        "name": "Империя продуктов",
        "shop": "convenience"
      }
    },
    {
      "type": "node",
      "id": 1821610614,
      "lat": 47.2499785,
      "lon": 39.7081972,
      "tags": {
        "name": "Солнечный круг",
        "payment:mastercard": "yes",
        "payment:visa": "yes",
        "shop": "supermarket"
      }
    },
    {
      "type": "node",
      "id": 1821611656,
      "lat": 47.2507389,
      "lon": 39.7110816,
      "tags": {
        "name": "Машарыч",
        "shop": "alcohol"
      }
    },
    {
      "type": "node",
      "id": 1825823513,
      "lat": 47.2633291,
      "lon": 39.7158661,
      "tags": {
        "brand": "Магнит",
        "brand:wikidata": "Q940518",
        "brand:wikipedia": "ru:Магнит (сеть магазинов)",
        "contact:email": "info@magnit.ru",
        "contact:phone": "+7 800 200-90-02",
        "contact:twitter": "https://twitter.com/magnit_info",
        "contact:website": "http://magnit-info.ru",
        "int_name": "Magnit",
        "name": "Магнит",
        "name:en": "Magnit",
        "name:ru": "Магнит",
        "opening_hours": "Mo-Su 09:00-21:00",
        "operator": "АО \"Тандер\"",
        "shop": "supermarket",
        "website": "http://www.magnit-info.ru"
      }
    },
    {
      "type": "node",
      "id": 1825895285,
      "lat": 47.2634262,
      "lon": 39.7163134,
      "tags": {
        "opening_hours": "9:00-22:00",
        "shop": "convenience",
        "wheelchair": "limited"
      }
    },
    {
      "type": "node",
      "id": 1825895290,
      "lat": 47.2634734,
      "lon": 39.716526,
      "tags": {
        "opening_hours": "Mo-Sa 09:00-19:00; Su 09:00-17:00",
        "shop": "hairdresser",
        "wheelchair": "limited"
      }
    },
    {
      "type": "node",
      "id": 1825900394,
      "lat": 47.2635026,
      "lon": 39.7140744,
      "tags": {
        "shop": "convenience"
      }
    },
    {
      "type": "node",
      "id": 1827816565,
      "lat": 47.2621611,
      "lon": 39.7185805,
      "tags": {
        "name": "Фото Матрица",
        "opening_hours": "Mo-Fr 09:00-19:00; Sa 10:00-19:00; Su 10:00-17:00",
        "operator": "ИП Шапиро Михаил Романович",
        "phone": "7 863 243 61 10",
        "shop": "photo"
      }
    },
    {
      "type": "node",
      "id": 1828108115,
      "lat": 47.2653389,
      "lon": 39.7198041,
      "tags": {
        "name": "Фрукты и овощи",
        "shop": "greengrocer"
      }
    },
    {
      "type": "node",
      "id": 1831488598,
      "lat": 47.2695315,
      "lon": 39.7059219,
      "tags": {
        "shop": "convenience"
      }
    },
    {
      "type": "node",
      "id": 1836634869,
      "lat": 47.2637411,
      "lon": 39.7183791,
      "tags": {
        "name": "Моя музыка",
        "opening_hours": "Mo-Fr 10:00-19:45; Sa 10:00-19:00; Su 10:15-18:00",
        "phone": "+7 863 2553414",
        "shop": "musical_instrument"
      }
    },
    {
      "type": "node",
      "id": 1837676945,
      "lat": 47.2276202,
      "lon": 39.7988715,
      "tags": {
        "name": "Продукты",
        "opening_hours": "Mo-Su 08:00-22:00",
        "shop": "convenience"
      }
    },
    {
      "type": "node",
      "id": 1838871454,
      "lat": 47.2116405,
      "lon": 39.6633012,
      "tags": {
        "name": "Солнечный круг",
        "payment:mastercard": "yes",
        "payment:visa": "yes",
        "shop": "supermarket"
      }
    },
    {
      "type": "node",
      "id": 1839916333,
      "lat": 47.2390185,
      "lon": 39.8266325,
      "tags": {
        "brand": "Магнит",
        "brand:wikidata": "Q940518",
        "brand:wikipedia": "ru:Магнит (сеть магазинов)",
        "contact:email": "info@magnit.ru",
        "contact:phone": "+7 800 200-90-02",
        "contact:twitter": "https://twitter.com/magnit_info",
        "contact:website": "http://magnit-info.ru",
        "name": "Магнит",
        "name:de": "Magnit",
        "name:en": "Magnit",
        "name:ru": "Магнит",
        "operator": "АО \"Тандер\"",
        "shop": "supermarket",
        "website": "http://www.magnit-info.ru"
      }
    },
    {
      "type": "node",
      "id": 1840532654,
      "lat": 47.2303406,
      "lon": 39.7604437,
      "tags": {
        "shop": "stationery"
      }
    },
    {
      "type": "node",
      "id": 1840532655,
      "lat": 47.2287895,
      "lon": 39.7523214,
      "tags": {
        "addr:housenumber": "47А",
        "addr:street": "Советская улица",
        "alt_name": "Тавр",
        "name": "Тавровские мясные лавки",
        "shop": "butcher",
        "website": "http://www.meatlavka.ru/"
      }
    },
    {
      "type": "node",
      "id": 1840652651,
      "lat": 47.2316717,
      "lon": 39.7619143,
      "tags": {
        "contact:phone": "+7 800 2500890",
        "contact:website": "https://rnd.mts.ru/",
        "name": "МТС",
        "opening_hours": "Mo-Su 09:00-21:00",
        "shop": "mobile_phone"
      }
    },
    {
      "type": "node",
      "id": 1840652685,
      "lat": 47.2276758,
      "lon": 39.7560089,
      "tags": {
        "name": "Добрыня",
        "shop": "convenience"
      }
    },
    {
      "type": "node",
      "id": 1840653624,
      "lat": 47.2318197,
      "lon": 39.7618865,
      "tags": {
        "shop": "clothes"
      }
    },
    {
      "type": "node",
      "id": 1840653628,
      "lat": 47.2323336,
      "lon": 39.762508,
      "tags": {
        "shop": "chemist"
      }
    },
    {
      "type": "node",
      "id": 1840653632,
      "lat": 47.2325002,
      "lon": 39.7610385,
      "tags": {
        "shop": "fabric"
      }
    },
    {
      "type": "node",
      "id": 1840653663,
      "lat": 47.2329965,
      "lon": 39.76452,
      "tags": {
        "name": "Мясной павильон",
        "shop": "butcher"
      }
    },
    {
      "type": "node",
      "id": 1840653666,
      "lat": 47.2332081,
      "lon": 39.7479782,
      "tags": {
        "shop": "convenience"
      }
    },
    {
      "type": "node",
      "id": 1853004283,
      "lat": 47.2429522,
      "lon": 39.7668546,
      "tags": {
        "name": "Ева",
        "shop": "beauty"
      }
    },
    {
      "type": "node",
      "id": 1868825803,
      "lat": 47.2035737,
      "lon": 39.6334688,
      "tags": {
        "name": "Апекс",
        "shop": "supermarket"
      }
    },
    {
      "type": "node",
      "id": 1904149566,
      "lat": 47.2603702,
      "lon": 39.7170601,
      "tags": {
        "building": "kiosk",
        "description": "Торты и прочее",
        "opening_hours": "Mo-Su 08:30-20:30",
        "shop": "confectionery"
      }
    },
    {
      "type": "node",
      "id": 1904149588,
      "lat": 47.2601255,
      "lon": 39.7171171,
      "tags": {
        "building": "yes",
        "description": "Колбасы, сосиски, замороженные полуфабрикаты",
        "official_name": "ООО \"Ростов-Торг\"",
        "opening_hours": "Mo-Su 08:00-20:00",
        "payment:mastercard": "yes",
        "payment:visa": "yes",
        "shop": "butcher"
      }
    },
    {
      "type": "node",
      "id": 1906075474,
      "lat": 47.2603371,
      "lon": 39.7168925,
      "tags": {
        "description": "петрушка, укроп, салат и другое",
        "shop": "greengrocer"
      }
    },
    {
      "type": "node",
      "id": 1910183749,
      "lat": 47.2593618,
      "lon": 39.7170814,
      "tags": {
        "name": "Парикмахерская",
        "opening_hours": "Mo-Su 10:00-20:00",
        "shop": "hairdresser"
      }
    },
    {
      "type": "node",
      "id": 1912959155,
      "lat": 47.2194667,
      "lon": 39.6974007,
      "tags": {
        "addr:housenumber": "11Б",
        "addr:street": "Доломановский переулок",
        "name": "Золотой Колос",
        "opening_hours": "08:00-21:00",
        "shop": "confectionery"
      }
    },
    {
      "type": "node",
      "id": 1929435931,
      "lat": 47.2959651,
      "lon": 39.7023825,
      "tags": {
        "name": "Цветы",
        "shop": "florist"
      }
    },
    {
      "type": "node",
      "id": 1939827498,
      "lat": 47.2293463,
      "lon": 39.6877027,
      "tags": {
        "name": "Айриван",
        "opening_hours": "Mo-Su 08:00-22:00",
        "shop": "convenience"
      }
    },
    {
      "type": "node",
      "id": 1948750108,
      "lat": 47.2187611,
      "lon": 39.700306,
      "tags": {
        "opening_hours": "24/7",
        "shop": "convenience"
      }
    },
    {
      "type": "node",
      "id": 1948751394,
      "lat": 47.2183546,
      "lon": 39.7005168,
      "tags": {
        "name": "Лазария",
        "shop": "convenience"
      }
    },
    {
      "type": "node",
      "id": 1956571604,
      "lat": 47.2244574,
      "lon": 39.7291347,
      "tags": {
        "name": "Парикмахерская",
        "opening_hours": "Mo-Su 08:00-20:00",
        "shop": "hairdresser"
      }
    },
    {
      "type": "node",
      "id": 1956573570,
      "lat": 47.2252994,
      "lon": 39.727851,
      "tags": {
        "name": "Союзпечать",
        "shop": "kiosk"
      }
    },
    {
      "type": "node",
      "id": 1972146017,
      "lat": 47.2208547,
      "lon": 39.7164167,
      "tags": {
        "addr:housenumber": "42",
        "addr:postcode": "344002",
        "addr:street": "Газетный переулок",
        "name": "Рыбачок",
        "shop": "seafood",
        "website": "https://rybachok.ru/"
      }
    },
    {
      "type": "node",
      "id": 2013436124,
      "lat": 47.2905592,
      "lon": 39.715611,
      "tags": {
        "name": "Севан",
        "shop": "bakery"
      }
    },
    {
      "type": "node",
      "id": 2013436125,
      "lat": 47.2944305,
      "lon": 39.7145677,
      "tags": {
        "addr:housenumber": "22/30",
        "addr:street": "проспект Королёва",
        "alt_name": "Тавр",
        "name": "Тавровские мясные лавки",
        "shop": "butcher",
        "website": "http://www.meatlavka.ru/"
      }
    },
    {
      "type": "node",
      "id": 2013436128,
      "lat": 47.2905537,
      "lon": 39.7155522,
      "tags": {
        "name": "Севан",
        "shop": "convenience"
      }
    },
    {
      "type": "node",
      "id": 2013436134,
      "lat": 47.2950263,
      "lon": 39.7154596,
      "tags": {
        "name": "Мясной павильон",
        "shop": "butcher"
      }
    },
    {
      "type": "node",
      "id": 2013940176,
      "lat": 47.229909,
      "lon": 39.7289805,
      "tags": {
        "building": "kiosk",
        "name": "ВЕЛО-ЛАРЁК",
        "opening_hours": "Tu-Sa 10:00-16:00",
        "service:bicycle:repair": "yes",
        "service:bicycle:retail": "no",
        "shop": "bicycle"
      }
    },
    {
      "type": "node",
      "id": 2031755495,
      "lat": 47.2400254,
      "lon": 39.6145769,
      "tags": {
        "addr:city": "Ростов-на-Дону",
        "addr:housenumber": "100",
        "addr:street": "улица Малиновского",
        "name": "Полистар, сотовый и монолитный поликарбонат",
        "shop": "doityourself",
        "website": "http://polistar.pamirkm.ru/"
      }
    },
    {
      "type": "node",
      "id": 2031761603,
      "lat": 47.2424892,
      "lon": 39.6086181,
      "tags": {
        "addr:housenumber": "146Б",
        "addr:street": "улица Доватора",
        "name": "Третий Дом, кровельные материалы",
        "shop": "doityourself",
        "website": "http://третийдом.рф"
      }
    },
    {
      "type": "node",
      "id": 2058948798,
      "lat": 47.2398583,
      "lon": 39.701626,
      "tags": {
        "alt_name": "Пятерочка",
        "brand": "Пятёрочка",
        "brand:wikidata": "Q1768969",
        "brand:wikipedia": "ru:Пятёрочка",
        "contact:email": "vopros@5ka.ru",
        "contact:facebook": "https://www.facebook.com/pyaterochka",
        "contact:instagram": "https://www.instagram.com/pyaterochka_official",
        "contact:ok": "https://ok.ru/pyaterochka",
        "contact:phone": "+7 800 5555505",
        "contact:vk": "https://vk.com/pyaterochka_shop",
        "contact:website": "https://5ka.ru",
        "name": "Пятёрочка",
        "name:ru": "Пятёрочка",
        "shop": "convenience"
      }
    },
    {
      "type": "node",
      "id": 2058948799,
      "lat": 47.2413698,
      "lon": 39.6937537,
      "tags": {
        "shop": "convenience"
      }
    },
    {
      "type": "node",
      "id": 2090690582,
      "lat": 47.2142523,
      "lon": 39.7160879,
      "tags": {
        "name": "Большой папа",
        "shop": "convenience"
      }
    },
    {
      "type": "node",
      "id": 2118414834,
      "lat": 47.1942744,
      "lon": 39.6975367,
      "tags": {
        "name": "Халва, масло",
        "shop": "kiosk"
      }
    },
    {
      "type": "node",
      "id": 2140636452,
      "lat": 47.2579068,
      "lon": 39.7697868,
      "tags": {
        "name": "Салон красоты \"Авангард\"",
        "shop": "hairdresser"
      }
    },
    {
      "type": "node",
      "id": 2145866205,
      "lat": 47.2192775,
      "lon": 39.6328389,
      "tags": {
        "name": "Ассорти",
        "opening_hours": "Mo-Su 08:00-23:00",
        "operator": "Ассорти-Продукт",
        "shop": "convenience"
      }
    },
    {
      "type": "node",
      "id": 2156960984,
      "lat": 47.2679323,
      "lon": 39.6833389,
      "tags": {
        "name": "Дон-Профиль, строительная компания, кровли и фасады",
        "shop": "doityourself"
      }
    },
    {
      "type": "node",
      "id": 2195757874,
      "lat": 47.2031879,
      "lon": 39.6295063,
      "tags": {
        "shop": "convenience"
      }
    },
    {
      "type": "node",
      "id": 2202473801,
      "lat": 47.261595,
      "lon": 39.7174353,
      "tags": {
        "shop": "hairdresser"
      }
    },
    {
      "type": "node",
      "id": 2239755543,
      "lat": 47.238161,
      "lon": 39.7455435,
      "tags": {
        "addr:city": "Ростов-на-Дону",
        "addr:housenumber": "7",
        "addr:street": "проспект Шолохова",
        "name": "ZEBRA",
        "shop": "stationery"
      }
    },
    {
      "type": "node",
      "id": 2240786358,
      "lat": 47.2282962,
      "lon": 39.718886,
      "tags": {
        "addr:housenumber": "51А",
        "addr:street": "проспект Соколова",
        "contact:phone": "+7(863) 266-53-86",
        "contact:website": "http://orug-dvor.ru/",
        "name": "Оружейный двор",
        "shop": "hunting"
      }
    },
    {
      "type": "node",
      "id": 2242709279,
      "lat": 47.3031923,
      "lon": 39.7578967,
      "tags": {
        "name": "Ассорти+",
        "shop": "convenience"
      }
    },
    {
      "type": "node",
      "id": 2248448279,
      "lat": 47.2501683,
      "lon": 39.7648465,
      "tags": {
        "name": "МАТТИНО ОБУВЬ",
        "shop": "shoes"
      }
    },
    {
      "type": "node",
      "id": 2255473075,
      "lat": 47.2107953,
      "lon": 39.6722062,
      "tags": {
        "addr:housenumber": "25",
        "addr:street": "проспект Стачки",
        "alt_name": "ДНС",
        "brand": "DNS",
        "brand:en": "DNS",
        "brand:ru": "ДНС",
        "brand:wikidata": "Q4036922",
        "brand:wikipedia": "DNS (сеть магазинов)",
        "contact:email": "smirnov.an@dns-shop.ru",
        "contact:facebook": "https://www.facebook.com/dnsshop",
        "contact:phone": "+7 800 7707999",
        "contact:twitter": "https://twitter.com/dnsshop",
        "contact:vk": "https://vk.com/dnsstore",
        "contact:website": "https://www.dns-shop.ru/",
        "contact:youtube": "https://www.youtube.com/c/DNSSHOPvideo",
        "name": "DNS",
        "name:en": "DNS",
        "name:ru": "ДНС",
        "opening_hours": "Mo-Su 10:00-22:00",
        "operator": "ДНС Ритейл",
        "shop": "electronics"
      }
    },
    {
      "type": "node",
      "id": 2255473086,
      "lat": 47.2201115,
      "lon": 39.7199569,
      "tags": {
        "addr:housenumber": "12",
        "addr:street": "Ворошиловский проспект",
        "alt_name": "ДНС",
        "brand": "DNS",
        "brand:en": "DNS",
        "brand:ru": "ДНС",
        "brand:wikidata": "Q4036922",
        "brand:wikipedia": "DNS (сеть магазинов)",
        "contact:facebook": "https://www.facebook.com/dnsshop",
        "contact:twitter": "https://twitter.com/dnsshop",
        "contact:vk": "https://vk.com/dnsstore",
        "contact:website": "https://www.dns-shop.ru/",
        "contact:youtube": "https://www.youtube.com/c/DNSSHOPvideo",
        "name": "DNS",
        "name:en": "DNS",
        "name:ru": "ДНС",
        "shop": "electronics",
        "website": "https://www.dns-shop.ru"
      }
    },
    {
      "type": "node",
      "id": 2255473092,
      "lat": 47.2329213,
      "lon": 39.7344576,
      "tags": {
        "addr:housenumber": "157",
        "addr:street": "Красноармейская улица",
        "alt_name": "ДНС",
        "brand": "DNS",
        "brand:en": "DNS",
        "brand:ru": "ДНС",
        "brand:wikidata": "Q4036922",
        "brand:wikipedia": "DNS (сеть магазинов)",
        "contact:email": "turbaba.a@dns-shop.ru",
        "contact:phone": "+7 800 7707999",
        "contact:twitter": "https://twitter.com/dnsshop",
        "contact:vk": "https://vk.com/dnsstore",
        "contact:website": "https://www.dns-shop.ru/",
        "contact:youtube": "https://www.youtube.com/c/DNSSHOPvideo",
        "name": "DNS",
        "name:en": "DNS",
        "name:ru": "ДНС",
        "opening_hours": "Mo-Su 10:00-22:00",
        "operator": "ДНС Ритейл",
        "shop": "electronics"
      }
    },
    {
      "type": "node",
      "id": 2255473098,
      "lat": 47.2593607,
      "lon": 39.7192762,
      "tags": {
        "addr:housenumber": "32",
        "addr:street": "проспект Михаила Нагибина",
        "alt_name": "ДНС",
        "brand": "DNS",
        "brand:en": "DNS",
        "brand:ru": "ДНС",
        "brand:wikidata": "Q4036922",
        "brand:wikipedia": "DNS (сеть магазинов)",
        "contact:email": "sorokin.a@dns-shop.ru",
        "contact:facebook": "https://www.facebook.com/dnsshop",
        "contact:phone": "+7 800 7707999",
        "contact:twitter": "https://twitter.com/dnsshop",
        "contact:vk": "https://vk.com/dnsstore",
        "contact:website": "https://www.dns-shop.ru/",
        "contact:youtube": "https://www.youtube.com/c/DNSSHOPvideo",
        "name": "DNS",
        "name:en": "DNS",
        "name:ru": "ДНС",
        "opening_hours": "Mo-Su 10:00-22:00",
        "operator": "ДНС Ритейл",
        "payment:mastercard": "yes",
        "payment:visa": "yes",
        "shop": "electronics"
      }
    },
    {
      "type": "node",
      "id": 2255473102,
      "lat": 47.2332264,
      "lon": 39.7360491,
      "tags": {
        "name": "Michelin",
        "shop": "tyres"
      }
    },
    {
      "type": "node",
      "id": 2255473103,
      "lat": 47.2177741,
      "lon": 39.7214026,
      "tags": {
        "addr:housenumber": "3",
        "addr:street": "улица Седова",
        "name": "Stilus",
        "shop": "computer"
      }
    },
    {
      "type": "node",
      "id": 2255473104,
      "lat": 47.2197342,
      "lon": 39.7087166,
      "tags": {
        "addr:housenumber": "33",
        "addr:street": "улица Шаумяна",
        "name": "Stilus",
        "shop": "computer"
      }
    },
    {
      "type": "node",
      "id": 2259832416,
      "lat": 47.2596991,
      "lon": 39.7196999,
      "tags": {
        "contact:email": "office@zoomail.ru",
        "contact:email:order": "disp@zoomail.ru",
        "contact:phone": "+7 495 5803535",
        "contact:phone:order": "+7 495 5855646",
        "contact:skype": "catsdogs201",
        "contact:twitter": "CatsDogs_ru",
        "name": "Cats&Dogs",
        "opening_hours": "Mo-Su 09:00-22:00",
        "shop": "pet",
        "website": "http://www.catsdogs.ru/"
      }
    },
    {
      "type": "node",
      "id": 2260143113,
      "lat": 47.2651767,
      "lon": 39.7190382,
      "tags": {
        "name": "Империя продуктов",
        "opening_hours": "9:00-21:00",
        "shop": "supermarket"
      }
    },
    {
      "type": "node",
      "id": 2262384524,
      "lat": 47.299543,
      "lon": 39.7445052,
      "tags": {
        "name": "Дольче Вита",
        "shop": "beauty"
      }
    },
    {
      "type": "node",
      "id": 2262384525,
      "lat": 47.2996002,
      "lon": 39.7443546,
      "tags": {
        "name": "Продукты",
        "shop": "convenience"
      }
    },
    {
      "type": "node",
      "id": 2262384526,
      "lat": 47.2994879,
      "lon": 39.7448884,
      "tags": {
        "name": "Ростов на лугу",
        "shop": "convenience"
      }
    },
    {
      "type": "node",
      "id": 2271908942,
      "lat": 47.2566235,
      "lon": 39.7155028,
      "tags": {
        "name": "Продукты +1000 мелочей",
        "operator": "ООО \"Орел\"",
        "shop": "convenience"
      }
    },
    {
      "type": "node",
      "id": 2271934017,
      "lat": 47.28192,
      "lon": 39.7149816,
      "tags": {
        "shop": "kiosk"
      }
    },
    {
      "type": "node",
      "id": 2277730268,
      "lat": 47.2306932,
      "lon": 39.7153839,
      "tags": {
        "name": "ЦентрОбувь",
        "shop": "shoes"
      }
    },
    {
      "type": "node",
      "id": 2277730282,
      "lat": 47.230172,
      "lon": 39.71563,
      "tags": {
        "amenity": "pharmacy",
        "description": "спортивное питание, питание для диабетиков",
        "email": "sport@aaanet.ru",
        "level": "-1",
        "name": "Спортивная аптека №2",
        "operator": "ООО \"Спорт\"",
        "phone": "8 863 2321994",
        "shop": "supplements",
        "website": "https://pitaniesportivnoe.su/"
      }
    },
    {
      "type": "node",
      "id": 2277730283,
      "lat": 47.2302377,
      "lon": 39.7156112,
      "tags": {
        "shop": "pet"
      }
    },
    {
      "type": "node",
      "id": 2277745424,
      "lat": 47.2335523,
      "lon": 39.7143173,
      "tags": {
        "name": "Zenden",
        "shop": "shoes"
      }
    },